{
  "version": 0.6,
  "generator": "Overpass API 0.7.55.7 8b86ff77",
  "osm3s": {
    "timestamp_osm_base": "2019-09-10T20:20:03Z",
    "timestamp_areas_base": "2019-09-10T19:36:02Z",
    "copyright": "The data included in this document is from www.openstreetmap.org. The data is made available under ODbL."
  },
  "elements": [
    {
      "type": "node",
      "id": 283054193,
      "lat": 50.1016896,
      "lon": 14.5033987,
      "tags": {
        "addr:housenumber": "8",
        "addr:postcode": "19000",
        "addr:street": "K Žižkovu",
        "amenity": "cafe",
        "cuisine": "coffee_shop",
        "internet_access": "wlan",
        "internet_access:fee": "no",
        "name": "Hudební kavárna Dadap",
        "opening_hours": "Mo-Fr 08:00-20:00",
        "outdoor_seating": "no",
        "website": "http://alacoffee.cz/"
      }
    },
    {
      "type": "node",
      "id": 296466582,
      "lat": 50.0854343,
      "lon": 14.4489919,
      "tags": {
        "addr:city": "Praha 3",
        "addr:conscriptionnumber": "139",
        "addr:housenumber": "139/8",
        "addr:postcode": "13000",
        "addr:street": "Štítného",
        "addr:streetnumber": "8",
        "amenity": "cafe",
        "cuisine": "coffee_shop;sandwich",
        "internet_access": "wlan",
        "internet_access:ssid": "My Coffee Story",
        "opening_hours": "Mo-Fri 08:30-20:00; Su 09:00-15:00",
        "outdoor_seating": "yes",
        "smoking": "outside",
        "source:addr": "uir_adr",
        "uir_adr:ADRESA_KOD": "21768421"
      }
    },
    {
      "type": "node",
      "id": 296485835,
      "lat": 50.0811337,
      "lon": 14.4200651,
      "tags": {
        "addr:conscriptionnumber": "74",
        "addr:housenumber": "74/2",
        "addr:postcode": "11000",
        "addr:street": "Purkyňova",
        "addr:streetnumber": "2",
        "amenity": "cafe",
        "name:en": "Oh Deer",
        "source:addr": "uir_adr",
        "uir_adr:ADRESA_KOD": "21701351"
      }
    },
    {
      "type": "node",
      "id": 296508369,
      "lat": 50.0761663,
      "lon": 14.445271,
      "tags": {
        "addr:conscriptionnumber": "1345",
        "addr:housenumber": "48",
        "addr:postcode": "12000",
        "addr:street": "Slezská",
        "addr:streetnumber": "48",
        "amenity": "cafe",
        "name": "Prosekárna",
        "opening_hours": "Mo-Su 10:00-22:00",
        "source:addr": "uir_adr",
        "uir_adr:ADRESA_KOD": "21752818",
        "website": "https://www.prosekarna.cz/"
      }
    },
    {
      "type": "node",
      "id": 296542635,
      "lat": 50.086058,
      "lon": 14.446665,
      "tags": {
        "addr:conscriptionnumber": "194",
        "addr:housenumber": "194/14",
        "addr:postcode": "13000",
        "addr:street": "Orebitská",
        "addr:streetnumber": "14",
        "amenity": "cafe",
        "cuisine": "vegan",
        "internet_access": "yes",
        "name": "Salé",
        "smoking": "outside",
        "source:addr": "uir_adr",
        "uir_adr:ADRESA_KOD": "21768943",
        "website": "https://sale.451.cz/"
      }
    },
    {
      "type": "node",
      "id": 296629860,
      "lat": 50.088496,
      "lon": 14.4095325,
      "tags": {
        "addr:conscriptionnumber": "107",
        "addr:housenumber": "34",
        "addr:place": "Malá Strana",
        "addr:postcode": "11800",
        "addr:street": "U Lužického semináře",
        "addr:streetnumber": "34",
        "amenity": "cafe",
        "name": "Cocovanka",
        "opening_hours": "Mo-Su 10:00-22:00",
        "ref:ruian:addr": "21695164"
      }
    },
    {
      "type": "node",
      "id": 296631269,
      "lat": 50.0799963,
      "lon": 14.4221842,
      "tags": {
        "addr:conscriptionnumber": "19",
        "addr:housenumber": "19/7",
        "addr:postcode": "11000",
        "addr:street": "Jungmannova",
        "addr:streetnumber": "7",
        "amenity": "cafe",
        "name:en": "Head shot coffee",
        "source:addr": "uir_adr",
        "uir_adr:ADRESA_KOD": "21700893"
      }
    },
    {
      "type": "node",
      "id": 296636665,
      "lat": 50.0710418,
      "lon": 14.4489022,
      "tags": {
        "addr:conscriptionnumber": "48",
        "addr:housenumber": "48/17",
        "addr:postcode": "10100",
        "addr:street": "Sevastopolská",
        "addr:streetnumber": "17",
        "amenity": "cafe",
        "name": "Café Sladkovsky",
        "source:addr": "uir_adr",
        "uir_adr:ADRESA_KOD": "22655301"
      }
    },
    {
      "type": "node",
      "id": 296683461,
      "lat": 50.0749008,
      "lon": 14.4313294,
      "tags": {
        "addr:city": "Praha",
        "addr:conscriptionnumber": "676",
        "addr:housenumber": "676/50",
        "addr:place": "Vinohrady",
        "addr:postcode": "12000",
        "addr:street": "Lublaňská",
        "addr:streetnumber": "50",
        "amenity": "cafe",
        "cuisine": "coffee_shop",
        "internet_access": "wlan",
        "name": "Pražírna",
        "opening_hours": "Mo-Fr 08:30-22:00; Sa 12:00-20:00",
        "phone": "+420 720 385 622",
        "ref:ruian:addr": "21746486",
        "website": "https://www.kavarnaprazirna.cz/"
      }
    },
    {
      "type": "node",
      "id": 296687305,
      "lat": 50.0707202,
      "lon": 14.458364,
      "tags": {
        "addr:conscriptionnumber": "651",
        "addr:housenumber": "651/22",
        "addr:postcode": "10100",
        "addr:street": "Kodaňská",
        "addr:streetnumber": "22",
        "amenity": "cafe",
        "name": "Baron Prášil Café",
        "source:addr": "uir_adr",
        "uir_adr:ADRESA_KOD": "22661913"
      }
    },
    {
      "type": "node",
      "id": 296694928,
      "lat": 50.0761616,
      "lon": 14.4472919,
      "tags": {
        "addr:city": "Praha",
        "addr:conscriptionnumber": "2315",
        "addr:country": "CZ",
        "addr:housenumber": "2315/62",
        "addr:place": "Vinohrady",
        "addr:postcode": "12000",
        "addr:street": "Slezská",
        "addr:streetnumber": "62",
        "addr:suburb": "Praha 2",
        "amenity": "cafe",
        "cuisine": "regional",
        "diet:vegan": "only",
        "diet:vegetarian": "only",
        "email": "info@momentcafe.cz",
        "facebook": "https://www.facebook.com/veganmoment/",
        "name": "Moment Cafe",
        "opening_hours": "Mo-Fr 09:00-22:00",
        "outdoor_seating": "yes",
        "phone": "+420 775 431 440",
        "ref:ruian:addr": "21757411",
        "source:addr": "cuzk:ruian",
        "source:loc": "survey",
        "website": "http://cafemoment.cz/",
        "wheelchair": "yes"
      }
    },
    {
      "type": "node",
      "id": 296700810,
      "lat": 50.0838835,
      "lon": 14.4232412,
      "tags": {
        "addr:city": "Praha",
        "addr:conscriptionnumber": "771",
        "addr:housenumber": "771/18",
        "addr:place": "Nové Město",
        "addr:postcode": "11000",
        "addr:street": "28. října",
        "addr:streetnumber": "18",
        "amenity": "cafe",
        "name": "Café Trinity",
        "ref:ruian:addr": "21705704"
      }
    },
    {
      "type": "node",
      "id": 296731584,
      "lat": 50.1033539,
      "lon": 14.4504882,
      "tags": {
        "addr:city": "Prague",
        "addr:conscriptionnumber": "475",
        "addr:housenumber": "475/43",
        "addr:postcode": "17000",
        "addr:street": "Dělnická",
        "addr:streetnumber": "43",
        "amenity": "cafe",
        "email": "kavarna@paralelnipolis.cz",
        "internet_access": "wlan",
        "name": "Bitcoin Coffee",
        "opening_hours": "Mo-Fr 08:00-20:00, Sa,Su 10:00-20:00",
        "payment:bitcoin": "yes",
        "phone": "+420 773 885 432",
        "source:addr": "uir_adr",
        "uir_adr:ADRESA_KOD": "22299742"
      }
    },
    {
      "type": "node",
      "id": 296733604,
      "lat": 50.1000437,
      "lon": 14.4263757,
      "tags": {
        "addr:conscriptionnumber": "817",
        "addr:housenumber": "817/48",
        "addr:postcode": "170 00",
        "addr:street": "Milady Horákové",
        "addr:streetnumber": "48",
        "amenity": "cafe",
        "name": "SÓLISTA ESPRESSO BAR",
        "source:addr": "uir_adr",
        "uir_adr:ADRESA_KOD": "22303707",
        "website": "http://www.solistaespressobar.cz"
      }
    },
    {
      "type": "node",
      "id": 296752712,
      "lat": 50.100526,
      "lon": 14.4292638,
      "tags": {
        "addr:conscriptionnumber": "592",
        "addr:housenumber": "38",
        "addr:postcode": "17000",
        "addr:street": "Heřmanova",
        "addr:streetnumber": "38",
        "amenity": "cafe",
        "name": "Café Nová doba",
        "opening_hours": "Mo-Sa 16:00-00:00",
        "source:addr": "uir_adr",
        "uir_adr:ADRESA_KOD": "22301135"
      }
    },
    {
      "type": "node",
      "id": 296809088,
      "lat": 50.1236134,
      "lon": 14.4972564,
      "tags": {
        "addr:conscriptionnumber": "559",
        "addr:housenumber": "559/3a",
        "addr:postcode": "19000",
        "addr:street": "Verneřická",
        "addr:streetnumber": "3a",
        "amenity": "cafe",
        "email": "uchudase@email.cz",
        "internet_access": "wlan",
        "internet_access:fee": "no",
        "name": "U Chuďase",
        "opening_hours": "Mo-Su 09:00-20:00",
        "phone": "+420 608 665 595",
        "smoking": "no",
        "source:addr": "uir_adr",
        "uir_adr:ADRESA_KOD": "22767614",
        "website": "http://www.uchudase.cz/"
      }
    },
    {
      "type": "node",
      "id": 296811962,
      "lat": 50.1310659,
      "lon": 14.5520874,
      "tags": {
        "addr:conscriptionnumber": "475",
        "addr:housename": "Cukrárna AVANTI",
        "addr:housenumber": "475",
        "addr:postcode": "19700",
        "addr:street": "Mladoboleslavská",
        "amenity": "cafe",
        "name": "Cukrárna AVANTI",
        "source:addr": "uir_adr",
        "uir_adr:ADRESA_KOD": "22463283"
      }
    },
    {
      "type": "node",
      "id": 296838208,
      "lat": 50.0937215,
      "lon": 14.4492132,
      "tags": {
        "addr:conscriptionnumber": "29",
        "addr:housenumber": "29/75",
        "addr:postcode": "18600",
        "addr:street": "Sokolovská",
        "addr:streetnumber": "75",
        "amenity": "cafe",
        "name": "Café MARTIN",
        "opening_hours": "mo 09:30-20:00, tu-fr 09:30-21:00",
        "phone": "+420 725 992 559",
        "source:addr": "uir_adr",
        "uir_adr:ADRESA_KOD": "22348816",
        "website": "http://www.a-mano.cz/cafe-martin/cafe-martin-zizkov.html",
        "wheelchair": "yes"
      }
    },
    {
      "type": "node",
      "id": 303443355,
      "lat": 50.0880207,
      "lon": 14.4041439,
      "tags": {
        "addr:city": "Praha",
        "addr:housenumber": "28",
        "addr:postcode": "11800",
        "addr:street": "Malostranské náměstí",
        "amenity": "cafe",
        "internet_access": "yes",
        "name": "Starbucks",
        "opening_hours": "Mo-Fr 7:00-21:00;Sa 8:00-22:00;Su 8:00-21:00",
        "wheelchair": "limited"
      }
    },
    {
      "type": "node",
      "id": 305282765,
      "lat": 50.0815408,
      "lon": 14.4132435,
      "tags": {
        "addr:city": "Praha",
        "addr:conscriptionnumber": "1012",
        "addr:country": "CZ",
        "addr:housenumber": "1012/2",
        "addr:place": "Staré Město",
        "addr:postcode": "11000",
        "addr:street": "Smetanovo nábřeží",
        "addr:streetnumber": "2",
        "addr:suburb": "Praha 1",
        "amenity": "cafe",
        "facebook": "https://www.facebook.com/cafeslavia/",
        "int_name": "Café Slavia",
        "name": "Kavárna Slavia",
        "name:de": "Café Slavia",
        "name:el": "Καφέ Σλάβια",
        "name:en": "Café Slavia",
        "name:fr": "Café Slavia",
        "name:ru": "самая старая кофейня",
        "opening_hours": "Mo-Fr 08:00-24:00; Sa,Su 09:00-24:00",
        "ref:ruian:addr": "21726531",
        "source:addr": "cuzk:ruian",
        "website": "https://www.cafeslavia.cz/",
        "wheelchair": "no",
        "wikidata": "Q521045",
        "wikipedia": "cs:Kavárna Slavia"
      }
    },
    {
      "type": "node",
      "id": 305816082,
      "lat": 50.0748363,
      "lon": 14.4367801,
      "tags": {
        "addr:city": "Praha",
        "addr:country": "CZ",
        "addr:place": "Vinohrady",
        "addr:postcode": "12000",
        "addr:street": "náměstí Míru",
        "addr:suburb": "Praha 2",
        "amenity": "cafe",
        "cuisine": "ice_cream",
        "name": "Vanille",
        "opening_hours": "Mo-Fr 7:00-20:00; Sa 9:00-20:00; Su 10:00-20:00",
        "outdoor_seating": "yes",
        "phone": "+420 777 836 320",
        "website": "http://www.vanille.cz/"
      }
    },
    {
      "type": "node",
      "id": 306360431,
      "lat": 50.081728,
      "lon": 14.416122,
      "tags": {
        "addr:city": "Praha",
        "addr:conscriptionnumber": "339",
        "addr:country": "CZ",
        "addr:housenumber": "339/11",
        "addr:place": "Staré Město",
        "addr:postcode": "11000",
        "addr:street": "Národní",
        "addr:streetnumber": "11",
        "addr:suburb": "Praha 1",
        "amenity": "cafe",
        "facebook": "https://www.facebook.com/narodnikavarna/",
        "internet_access": "wlan",
        "internet_access:fee": "no",
        "name": "Národní kavárna",
        "opening_hours": "Mo-Fr 08:00-22:00; Sa,Su 09:00-22:00",
        "outdoor_seating": "yes",
        "phone": "+420 222 262 291",
        "ref:ruian:addr": "21718628",
        "source:addr": "cuzk:ruian",
        "source:loc": "survey",
        "website": "https://www.narodnikavarna.cz/",
        "wheelchair": "yes"
      }
    },
    {
      "type": "node",
      "id": 309290158,
      "lat": 50.0969164,
      "lon": 14.4041042,
      "tags": {
        "addr:city": "Praha",
        "addr:housenumber": "119",
        "addr:postcode": "16000",
        "addr:street": "Milady Horákové",
        "amenity": "cafe",
        "internet_access": "wlan",
        "name": "Costa Coffee",
        "opening_hours": "Mo-Fr 07:00-21:00; Sa-Su 08:00-20:00",
        "smoking": "no",
        "website": "http://www.costa-coffee.cz/",
        "wheelchair": "no"
      }
    },
    {
      "type": "node",
      "id": 320808283,
      "lat": 50.0814283,
      "lon": 14.4267126,
      "tags": {
        "addr:city": "Praha",
        "addr:housenumber": "40",
        "addr:postcode": "11000",
        "addr:street": "Václavské náměstí",
        "amenity": "cafe",
        "internet_access": "wlan",
        "internet_access:fee": "no",
        "name": "Starbucks",
        "name:ru": "Старбакс"
      }
    },
    {
      "type": "node",
      "id": 330200824,
      "lat": 50.1045723,
      "lon": 14.3726699,
      "tags": {
        "amenity": "cafe",
        "name": "Oleandr",
        "opening_hours": "Mo 08:00-20:00; Tu-Fr 8:00 - 22:00; Sa 10:00-16:00",
        "phone": "+420606096410",
        "website": "http://www.oleandrcafe.cz/"
      }
    },
    {
      "type": "node",
      "id": 330610367,
      "lat": 50.0979092,
      "lon": 14.3961535,
      "tags": {
        "amenity": "cafe",
        "name": "Lavazza"
      }
    },
    {
      "type": "node",
      "id": 331950460,
      "lat": 50.1001607,
      "lon": 14.4198807,
      "tags": {
        "amenity": "cafe",
        "cuisine": "tea",
        "name": "Čajovna ve věži"
      }
    },
    {
      "type": "node",
      "id": 331959646,
      "lat": 50.07805,
      "lon": 14.4164313,
      "tags": {
        "addr:city": "Praha",
        "addr:housenumber": "6",
        "addr:postcode": "11000",
        "addr:street": "Pštrossova",
        "amenity": "cafe",
        "name": "Globe",
        "toilets:wheelchair": "no"
      }
    },
    {
      "type": "node",
      "id": 331960296,
      "lat": 50.0781223,
      "lon": 14.418148,
      "tags": {
        "addr:city": "Praha",
        "addr:housenumber": "25",
        "addr:postcode": "11000",
        "addr:street": "Myslíkova",
        "amenity": "cafe",
        "name": "Le Petit Café"
      }
    },
    {
      "type": "node",
      "id": 335700542,
      "lat": 50.0849446,
      "lon": 14.446716,
      "tags": {
        "addr:city": "Praha",
        "addr:housenumber": "55",
        "addr:postcode": "13000",
        "addr:street": "Seifertova",
        "amenity": "cafe",
        "internet_access": "wlan",
        "name": "Costa Coffee",
        "opening_hours": "Mo-Fr 07:00-21:00; Sa-Su 08:00-20:00",
        "smoking": "no",
        "website": "www.costa-coffee.cz",
        "wheelchair": "no"
      }
    },
    {
      "type": "node",
      "id": 338836405,
      "lat": 50.0844932,
      "lon": 14.4289014,
      "tags": {
        "amenity": "cafe",
        "email": "bistro@maurizio.cz",
        "name": "Maurizio",
        "opening_hours": "Mo-Fr 07:00-22:00; Sa,Su,PH 08:00-22:00",
        "payment:cash": "yes",
        "payment:credit_cards": "yes",
        "payment:debit_cards": "yes",
        "phone": "+420 608 438 842",
        "start_date": "2016-02-27",
        "website": "https://www.maurizio.cz/"
      }
    },
    {
      "type": "node",
      "id": 340100457,
      "lat": 50.0756045,
      "lon": 14.4311256,
      "tags": {
        "addr:city": "Praha",
        "addr:housenumber": "5",
        "addr:postcode": "12000",
        "addr:street": "Jugoslávská",
        "amenity": "cafe",
        "internet_access": "wlan",
        "name": "Starbucks",
        "operator": "Starbucks"
      }
    },
    {
      "type": "node",
      "id": 340136610,
      "lat": 50.0988401,
      "lon": 14.4329534,
      "tags": {
        "addr:city": "Praha",
        "addr:conscriptionnumber": "476",
        "addr:country": "CZ",
        "addr:housenumber": "476/1",
        "addr:place": "Holešovice",
        "addr:postcode": "17000",
        "addr:street": "Milady Horákové",
        "addr:streetnumber": "1",
        "addr:suburb": "Praha 7",
        "amenity": "cafe",
        "internet_access": "wlan",
        "internet_access:fee": "no",
        "name": "Cross Cafe",
        "opening_hours": "Mo-Su 06:00-23:00",
        "outdoor_seating": "yes",
        "phone": "+420 734 153 320",
        "ref:ruian:addr": "22299769",
        "source:addr": "cuzk:ruian",
        "source:loc": "survey",
        "website": "https://www.crosscafe.cz/",
        "wheelchair": "no"
      }
    },
    {
      "type": "node",
      "id": 343287003,
      "lat": 50.079473,
      "lon": 14.4560799,
      "tags": {
        "amenity": "cafe",
        "name": "Epizoda"
      }
    },
    {
      "type": "node",
      "id": 354984765,
      "lat": 50.0979105,
      "lon": 14.4006901,
      "tags": {
        "addr:city": "Praha 6",
        "addr:housenumber": "3",
        "addr:street": "Dejvická",
        "amenity": "cafe",
        "internet_access": "no",
        "name": "Kafemat",
        "opening_hours": "Mo-Fr 08:00-18:00",
        "website": "https://www.yelp.com/biz_photos/kafemat-praha"
      }
    },
    {
      "type": "node",
      "id": 354991317,
      "lat": 50.0901036,
      "lon": 14.4098422,
      "tags": {
        "addr:city": "Praha",
        "addr:conscriptionnumber": "526",
        "addr:country": "CZ",
        "addr:housenumber": "526/2",
        "addr:place": "Malá Strana",
        "addr:postcode": "11800",
        "addr:street": "Letenská",
        "addr:streetnumber": "2",
        "addr:suburb": "Praha 1",
        "amenity": "cafe",
        "name": "Cafe Klárov",
        "ref:ruian:addr": "21700192",
        "source:addr": "cuzk:ruian",
        "source:loc": "survey"
      }
    },
    {
      "type": "node",
      "id": 355008181,
      "lat": 50.076072,
      "lon": 14.4164274,
      "tags": {
        "addr:city": "Praha",
        "addr:conscriptionnumber": "1947",
        "addr:country": "CZ",
        "addr:housenumber": "1947/3",
        "addr:place": "Nové Město",
        "addr:postcode": "12000",
        "addr:street": "Na Zderaze",
        "addr:streetnumber": "3",
        "addr:suburb": "Praha 2",
        "amenity": "cafe",
        "cuisine": "patisserie",
        "description": "cukrářská dílna a kavárna",
        "name": "Studánka",
        "opening_hours": "Mo 10:00-18:00; Tu-Fr 09:00-18:00; Su 10:00-14:00",
        "phone": "+420 224 923 916",
        "ref:ruian:addr": "21735743",
        "smoking": "no",
        "source:addr": "cuzk:ruian",
        "source:loc": "survey",
        "website": "http://www.cukrarna-studanka.cz/"
      }
    },
    {
      "type": "node",
      "id": 355008195,
      "lat": 50.0779626,
      "lon": 14.4187005,
      "tags": {
        "amenity": "cafe",
        "name": "Redroom"
      }
    },
    {
      "type": "node",
      "id": 355011257,
      "lat": 50.0826371,
      "lon": 14.4043082,
      "tags": {
        "addr:city": "Praha",
        "addr:conscriptionnumber": "412",
        "addr:country": "CZ",
        "addr:housenumber": "412/1",
        "addr:place": "Malá Strana",
        "addr:postcode": "11800",
        "addr:street": "U lanové dráhy",
        "addr:streetnumber": "1",
        "addr:suburb": "Praha 1",
        "amenity": "cafe",
        "facebook": "https://www.facebook.com/cukrarnauknoflicku/",
        "internet_access": "wlan",
        "internet_access:fee": "no",
        "name": "U Knoflíčků",
        "opening_hours": "Mo-Fr 09:00-18:30; Sa,Su 10:00-18:30",
        "phone": "+420 777 235 139",
        "ref:ruian:addr": "21698805",
        "shop": "confectionery",
        "smoking": "no",
        "source:addr": "cuzk:ruian",
        "source:loc": "survey",
        "website": "http://www.uknoflicku.cz/"
      }
    },
    {
      "type": "node",
      "id": 358488350,
      "lat": 50.0806936,
      "lon": 14.4166585,
      "tags": {
        "amenity": "cafe",
        "name": "Galerie písničkářů"
      }
    },
    {
      "type": "node",
      "id": 359952922,
      "lat": 50.0747625,
      "lon": 14.439231,
      "tags": {
        "amenity": "cafe",
        "cuisine": "teahouse",
        "name": "Čajovna U Dvou šálků"
      }
    },
    {
      "type": "node",
      "id": 370365713,
      "lat": 50.0870244,
      "lon": 14.4033943,
      "tags": {
        "amenity": "cafe",
        "name": "Il Balcone"
      }
    },
    {
      "type": "node",
      "id": 428890178,
      "lat": 50.0703351,
      "lon": 14.4187028,
      "tags": {
        "addr:city": "Praha",
        "addr:housenumber": "37",
        "addr:postcode": "12800",
        "addr:street": "Vyšehradská",
        "amenity": "cafe",
        "name": "Kaldi fresh coffee bar"
      }
    },
    {
      "type": "node",
      "id": 429314451,
      "lat": 50.0732645,
      "lon": 14.4183264,
      "tags": {
        "addr:city": "Praha",
        "addr:housenumber": "53",
        "addr:postcode": "12800",
        "addr:street": "Vyšehradská",
        "amenity": "cafe",
        "name": "Lelí's Cupcakes",
        "name:en": "Leli's Cupcakes",
        "name:ru": "Кексы Лили"
      }
    },
    {
      "type": "node",
      "id": 434518183,
      "lat": 50.0738591,
      "lon": 14.4152744,
      "tags": {
        "addr:city": "Praha",
        "addr:housenumber": "8",
        "addr:postcode": "12000",
        "addr:street": "Gorazdova",
        "amenity": "cafe",
        "name": "Locál"
      }
    },
    {
      "type": "node",
      "id": 435137715,
      "lat": 50.0844298,
      "lon": 14.4156861,
      "tags": {
        "addr:city": "Praha",
        "addr:housenumber": "7",
        "addr:postcode": "11000",
        "addr:street": "Náprstkova",
        "amenity": "cafe",
        "name": "Café Bar Archa"
      }
    },
    {
      "type": "node",
      "id": 449803063,
      "lat": 50.0718171,
      "lon": 14.4486381,
      "tags": {
        "addr:conscriptionnumber": "299",
        "addr:housenumber": "299/98",
        "addr:postcode": "10100",
        "addr:street": "Francouzská",
        "addr:streetnumber": "98",
        "amenity": "cafe",
        "cuisine": "coffee_shop",
        "name:en": "Coffee Source",
        "opening_hours": "Mo-Th 08:00-18:00; Fr 08:00-17:00",
        "source:addr": "uir_adr",
        "uir_adr:ADRESA_KOD": "22657631"
      }
    },
    {
      "type": "node",
      "id": 493878004,
      "lat": 50.072359,
      "lon": 14.404673,
      "tags": {
        "addr:city": "Praha",
        "addr:conscriptionnumber": "291",
        "addr:country": "CZ",
        "addr:housenumber": "291/40b",
        "addr:place": "Smíchov",
        "addr:postcode": "15000",
        "addr:street": "Lidická",
        "addr:streetnumber": "40b",
        "addr:suburb": "Praha 5",
        "amenity": "cafe",
        "facebook": "https://www.facebook.com/paluba.cz",
        "name": "Klub deskových her Paluba",
        "name:cs": "Klub deskových her Paluba",
        "name:en": "Board games club Paluba",
        "opening_hours": "Mo-We 17:00-22:00; Oct-Mar: Mo-We 17:00-22:00, Su 14:00-20:00",
        "phone": "+420 222 725 822",
        "shop": "games",
        "website": "http://www.paluba.cz/",
        "wheelchair": "limited",
        "wheelchair:description": "please ring the bell and the staff will help you in with wheelchair"
      }
    },
    {
      "type": "node",
      "id": 510934641,
      "lat": 50.1038762,
      "lon": 14.3900738,
      "tags": {
        "addr:city": "Praha",
        "addr:housenumber": "6",
        "addr:postcode": "16000",
        "addr:street": "Technická",
        "amenity": "cafe",
        "name": "Café Prostoru_",
        "smoking": "no",
        "website": "https://cafe.prostoru.cz/",
        "wheelchair": "yes"
      }
    },
    {
      "type": "node",
      "id": 524710403,
      "lat": 50.0771508,
      "lon": 14.4155289,
      "tags": {
        "addr:city": "Praha",
        "addr:housenumber": "6",
        "addr:postcode": "12000",
        "addr:street": "Myslíkova",
        "amenity": "cafe",
        "name": "Květinová čajovna",
        "website": "http://www.kvetinova.wz.cz/"
      }
    },
    {
      "type": "node",
      "id": 528435770,
      "lat": 50.0835892,
      "lon": 14.4173488,
      "tags": {
        "addr:city": "Praha",
        "addr:conscriptionnumber": "291",
        "addr:country": "CZ",
        "addr:housenumber": "291/24",
        "addr:place": "Staré Město",
        "addr:postcode": "11000",
        "addr:street": "Konviktská",
        "addr:streetnumber": "24",
        "addr:suburb": "Praha 1",
        "amenity": "cafe",
        "internet_access": "wlan",
        "internet_access:fee": "no",
        "name": "CP1 Café",
        "opening_hours": "Mo-Su 08:30-23:00",
        "outdoor_seating": "yes",
        "phone": "+420 607 079 121",
        "ref:ruian:addr": "21717991",
        "source:addr": "cuzk:ruian",
        "website": "http://www.cp1cafe.cz/"
      }
    },
    {
      "type": "node",
      "id": 528855502,
      "lat": 50.07268,
      "lon": 14.4232747,
      "tags": {
        "addr:city": "Praha",
        "addr:housenumber": "4",
        "addr:postcode": "12800",
        "addr:street": "Kateřinská",
        "amenity": "cafe",
        "cuisine": "teahouse",
        "name": "Čajovna Na cestě",
        "website": "http://cajovna-naceste.cz/"
      }
    },
    {
      "type": "node",
      "id": 552405059,
      "lat": 50.0828815,
      "lon": 14.4148712,
      "tags": {
        "addr:city": "Praha",
        "addr:housenumber": "6",
        "addr:postcode": "11000",
        "addr:street": "Konviktská",
        "amenity": "cafe",
        "name": "U Chlupatýho ducha",
        "sustenance": "Café, Restaurant"
      }
    },
    {
      "type": "node",
      "id": 564625834,
      "lat": 50.1008874,
      "lon": 14.4171779,
      "tags": {
        "addr:housename": "Letenský Montmartre",
        "amenity": "cafe",
        "cuisine": "soups + sweets",
        "facebook": "https://www.facebook.com/cukrarna.alchymista/",
        "internet_access": "wlan",
        "internet_access:fee": "no",
        "name": "Cukrárna Alchymista",
        "opening_hours": "Mo-Su 10:30-19:30",
        "outdoor_seating": "yes",
        "payment:bitcoin": "yes",
        "phone": "+420 732 938 046",
        "shop": "confectionery",
        "smoking": "no",
        "website": "http://www.alchymista.cz/",
        "wheelchair": "yes"
      }
    },
    {
      "type": "node",
      "id": 566396664,
      "lat": 50.0751775,
      "lon": 14.487928,
      "tags": {
        "amenity": "cafe",
        "name": "T-Quest"
      }
    },
    {
      "type": "node",
      "id": 575173347,
      "lat": 50.0885905,
      "lon": 14.4503665,
      "tags": {
        "amenity": "cafe",
        "name": "Cafe Bar Vítkov",
        "website": "http://cafebarvitkov.cz/"
      }
    },
    {
      "type": "node",
      "id": 585337453,
      "lat": 50.0990563,
      "lon": 14.6720689,
      "tags": {
        "amenity": "cafe"
      }
    },
    {
      "type": "node",
      "id": 585337454,
      "lat": 50.097102,
      "lon": 14.6704862,
      "tags": {
        "amenity": "cafe"
      }
    },
    {
      "type": "node",
      "id": 600442079,
      "lat": 50.143855,
      "lon": 14.5793297,
      "tags": {
        "amenity": "cafe",
        "name": "Marcipánka"
      }
    },
    {
      "type": "node",
      "id": 625826249,
      "lat": 50.0723171,
      "lon": 14.436125,
      "tags": {
        "amenity": "cafe",
        "name": "Róza K.",
        "smoking": "separated",
        "website": "http://rozak.webnode.cz/"
      }
    },
    {
      "type": "node",
      "id": 625826251,
      "lat": 50.0775211,
      "lon": 14.4361494,
      "tags": {
        "amenity": "cafe",
        "name": "Popocafepetl",
        "website": "http://www.popocafepetl.cz/menu_italska.php",
        "wheelchair": "no"
      }
    },
    {
      "type": "node",
      "id": 626575494,
      "lat": 50.1082189,
      "lon": 14.4432452,
      "tags": {
        "addr:city": "Praha",
        "addr:conscriptionnumber": "1096",
        "addr:country": "CZ",
        "addr:housenumber": "1096/23",
        "addr:place": "Holešovice",
        "addr:postcode": "17000",
        "addr:street": "Plynární",
        "addr:streetnumber": "23",
        "addr:suburb": "Praha 7",
        "amenity": "cafe",
        "internet_access:fee": "no",
        "internet_access:type": "wlan",
        "name": "Kavárna klubu Cross",
        "opening_hours": "Mo-Su 00:00-02:00, 14:00-24:00",
        "phone": "+420 736 535 010",
        "ref:ruian:addr": "22306935",
        "smoking": "yes",
        "source:addr": "cuzk:ruian",
        "website": "http://www.crossclub.cz/"
      }
    },
    {
      "type": "node",
      "id": 654059228,
      "lat": 50.0389006,
      "lon": 14.4759763,
      "tags": {
        "addr:city": "Praha",
        "addr:conscriptionnumber": "2144",
        "addr:housenumber": "2144/1",
        "addr:postcode": "14800",
        "addr:street": "Tomíčkova",
        "addr:streetnumber": "1",
        "amenity": "cafe",
        "internet_access": "wlan",
        "name": "Costa Coffee",
        "opening_hours": "Mo-Fr 07:30-18:00",
        "operator": "Costa Coffe",
        "smoking": "no",
        "website": "www.costa-coffee.cz",
        "wheelchair": "no"
      }
    },
    {
      "type": "node",
      "id": 661404298,
      "lat": 50.0890945,
      "lon": 14.4238324,
      "tags": {
        "addr:city": "Praha",
        "addr:housenumber": "8",
        "addr:postcode": "11000",
        "addr:street": "Masná",
        "amenity": "cafe",
        "name": "Čajovna Siva",
        "opening_hours": "Mo-Th 12:00-19:00, Fr 14:00-19:00"
      }
    },
    {
      "type": "node",
      "id": 668979791,
      "lat": 50.0839764,
      "lon": 14.4042266,
      "tags": {
        "addr:city": "Praha",
        "addr:conscriptionnumber": "400",
        "addr:country": "CZ",
        "addr:housenumber": "400/37",
        "addr:place": "Malá Strana",
        "addr:postcode": "11800",
        "addr:street": "Újezd",
        "addr:streetnumber": "37",
        "addr:suburb": "Praha 1",
        "amenity": "cafe",
        "facebook": "https://www.facebook.com/dobra.trafika/",
        "name": "Dobrá trafika",
        "opening_hours": "Mo-Fr 06:30-23:00; Sa 07:30-23:00; Su 09:00-23:00",
        "outdoor_seating": "yes",
        "phone": "+420 732 852 364",
        "ref:ruian:addr": "21698686",
        "smoking": "outside",
        "source:addr": "cuzk:ruian",
        "source:loc": "survey",
        "website": "http://www.dobratrafika.cz/"
      }
    },
    {
      "type": "node",
      "id": 668979792,
      "lat": 50.0752244,
      "lon": 14.4445636,
      "tags": {
        "addr:city": "Praha",
        "addr:conscriptionnumber": "1174",
        "addr:country": "CZ",
        "addr:housenumber": "1174/42",
        "addr:place": "Vinohrady",
        "addr:postcode": "12000",
        "addr:street": "Korunní",
        "addr:streetnumber": "42",
        "addr:suburb": "Praha 2",
        "amenity": "cafe",
        "name": "Dobrá trafika",
        "opening_hours": "Mo-Fr 07:30-23:00; Sa 08:00-23:00; Su 09:00-23:00",
        "outdoor_seating": "yes",
        "phone": "+420 737 907 635",
        "ref:ruian:addr": "21751081",
        "shop": "newsagent",
        "source:addr": "cuzk:ruian",
        "source:loc": "survey",
        "website": "http://www.dobratrafika.cz/"
      }
    },
    {
      "type": "node",
      "id": 669208817,
      "lat": 50.0717972,
      "lon": 14.4675808,
      "tags": {
        "amenity": "cafe",
        "internet_access": "wlan",
        "name": "Le Verdon",
        "smoking": "yes"
      }
    },
    {
      "type": "node",
      "id": 704693472,
      "lat": 50.0683948,
      "lon": 14.4167572,
      "tags": {
        "addr:city": "Praha",
        "addr:housenumber": "7",
        "addr:postcode": "12800",
        "addr:street": "Na Hrobci",
        "amenity": "cafe",
        "name": "Notabene"
      }
    },
    {
      "type": "node",
      "id": 704693478,
      "lat": 50.0691571,
      "lon": 14.4157599,
      "tags": {
        "addr:city": "Praha",
        "addr:housenumber": "8",
        "addr:postcode": "12800",
        "addr:street": "Podskalská",
        "amenity": "cafe",
        "internet_access": "wlan",
        "internet_access:fee": "no",
        "name": "AdAstra",
        "website": "http://www.cafeadastra.cz/"
      }
    },
    {
      "type": "node",
      "id": 708794335,
      "lat": 50.0699633,
      "lon": 14.415585,
      "tags": {
        "addr:city": "Praha",
        "addr:conscriptionnumber": "2045",
        "addr:country": "CZ",
        "addr:housenumber": "2045/1",
        "addr:place": "Nové Město",
        "addr:postcode": "12800",
        "addr:street": "Ladova",
        "addr:streetnumber": "1",
        "addr:suburb": "Praha 2",
        "amenity": "cafe",
        "name": "Šťastná kavárna",
        "opening_hours": "Mo-Fr 07:00-18:00; Sa 08:00-15:30",
        "phone": "+420 777893993",
        "ref:ruian:addr": "21736740",
        "source:addr": "cuzk:ruian",
        "source:loc": "survey",
        "website": "https://www.facebook.com/stastnakavarna/"
      }
    },
    {
      "type": "node",
      "id": 842553591,
      "lat": 50.080101,
      "lon": 14.4299887,
      "tags": {
        "addr:city": "Praha",
        "addr:housenumber": "57",
        "addr:postcode": "11000",
        "addr:street": "Václavské náměstí",
        "amenity": "cafe",
        "internet_access": "wlan",
        "name": "Starbucks",
        "opening_hours": "Mo-Fr 06:30-22:30; Sa-Su 07:30-23:30",
        "website": "http://www.starbuckscoffee.cz/"
      }
    },
    {
      "type": "node",
      "id": 906624472,
      "lat": 50.0748982,
      "lon": 14.4377245,
      "tags": {
        "addr:city": "Praha",
        "addr:conscriptionnumber": "585",
        "addr:country": "CZ",
        "addr:housenumber": "585/1",
        "addr:place": "Vinohrady",
        "addr:postcode": "12000",
        "addr:street": "Francouzská",
        "addr:streetnumber": "1",
        "addr:suburb": "Praha 2",
        "amenity": "cafe",
        "internet_access": "wlan",
        "internet_access:fee": "no",
        "name": "U Svaté Ludmily",
        "official_name": "Křesťanský domov mládeže a školní jídelna u sv. Ludmily",
        "opening_hours": "Mo-Fr 15:00-21:00",
        "phone": "+420 224 900 685",
        "ref:ruian:addr": "21745471",
        "smoking": "no",
        "source:addr": "cuzk:ruian",
        "source:loc": "survey",
        "website": "http://www.kdm.cz/",
        "wikidata": "Q18340203",
        "wikipedia": "cs:Křesťanský domov mládeže u sv. Ludmily"
      }
    },
    {
      "type": "node",
      "id": 914007931,
      "lat": 50.1034839,
      "lon": 14.3980917,
      "tags": {
        "amenity": "cafe",
        "name": "Kabinet",
        "opening_hours": "Sa-Mo,PH 15:00-22:00, Tu-Fr 12:00-22:00"
      }
    },
    {
      "type": "node",
      "id": 920064808,
      "lat": 50.08225,
      "lon": 14.4488059,
      "tags": {
        "addr:city": "Praha",
        "addr:conscriptionnumber": "1548",
        "addr:country": "CZ",
        "addr:housenumber": "1548/27",
        "addr:place": "Žižkov",
        "addr:postcode": "13000",
        "addr:street": "Kubelíkova",
        "addr:streetnumber": "27",
        "addr:suburb": "Praha 3",
        "amenity": "cafe",
        "description": "Pokladna v Kavárně Paláce Akropolis",
        "facebook": "https://www.facebook.com/Palac.Akropolis.klub/",
        "name": "Palác Akropolis",
        "opening_hours": "Mo-Fr 10:00-24:00; Sa,Su 16:00-24:00",
        "phone": "+420 296 330 913",
        "ref:ruian:addr": "21783519",
        "source:addr": "cuzk:ruian",
        "source:loc": "survey",
        "website": "http://www.palacakropolis.cz/"
      }
    },
    {
      "type": "node",
      "id": 920513085,
      "lat": 50.0983476,
      "lon": 14.4027976,
      "tags": {
        "addr:city": "Praha 6",
        "addr:conscriptionnumber": "272",
        "addr:housenumber": "272/5",
        "addr:postcode": "16000",
        "addr:street": "Mařákova",
        "addr:streetnumber": "5",
        "amenity": "cafe",
        "internet_access": "wlan",
        "name": "Vypálené koťátko",
        "phone": "+420 737 726 104",
        "website": "http://www.vypalenekotatko.cz"
      }
    },
    {
      "type": "node",
      "id": 1008224387,
      "lat": 50.0772385,
      "lon": 14.4613697,
      "tags": {
        "amenity": "cafe",
        "name": "Carpe Diem",
        "wheelchair": "no"
      }
    },
    {
      "type": "node",
      "id": 1096688516,
      "lat": 50.091502,
      "lon": 14.4041925,
      "tags": {
        "amenity": "cafe",
        "outdoor_seating": "yes"
      }
    },
    {
      "type": "node",
      "id": 1096688545,
      "lat": 50.091932,
      "lon": 14.404935,
      "tags": {
        "amenity": "cafe",
        "internet_access": "no",
        "name": "Black Tower"
      }
    },
    {
      "type": "node",
      "id": 1096688598,
      "lat": 50.0916198,
      "lon": 14.4032539,
      "tags": {
        "amenity": "cafe",
        "name": "Café Galleria",
        "outdoor_seating": "yes"
      }
    },
    {
      "type": "node",
      "id": 1120233221,
      "lat": 50.0788988,
      "lon": 14.4213844,
      "tags": {
        "addr:city": "Praha",
        "addr:housenumber": "8",
        "addr:postcode": "11000",
        "addr:street": "Lazarská",
        "amenity": "cafe",
        "email": "info@cafeidoskop.cz",
        "name": "Caféidoskop",
        "phone": "+420 224 946 526",
        "website": "www.cafeidoskop.cz"
      }
    },
    {
      "type": "node",
      "id": 1143040669,
      "lat": 50.08024,
      "lon": 14.603598,
      "tags": {
        "amenity": "cafe"
      }
    },
    {
      "type": "node",
      "id": 1185922410,
      "lat": 50.0825963,
      "lon": 14.406848,
      "tags": {
        "addr:city": "Praha",
        "addr:conscriptionnumber": "449",
        "addr:country": "CZ",
        "addr:housenumber": "449/14",
        "addr:place": "Malá Strana",
        "addr:postcode": "11800",
        "addr:street": "Všehrdova",
        "addr:streetnumber": "14",
        "addr:suburb": "Praha 1",
        "amenity": "cafe",
        "facebook": "https://www.facebook.com/kavarna.mlynska/",
        "internet_access": "wlan",
        "internet_access:fee": "no",
        "name": "Mlýnská kavárna",
        "opening_hours": "Mo-Su 12:00-24:00",
        "outdoor_seating": "yes",
        "ref:ruian:addr": "21699224",
        "source:addr": "cuzk:ruian",
        "source:loc": "survey"
      }
    },
    {
      "type": "node",
      "id": 1208830908,
      "lat": 50.0754957,
      "lon": 14.4437,
      "tags": {
        "amenity": "cafe",
        "name": "Maluj"
      }
    },
    {
      "type": "node",
      "id": 1224175689,
      "lat": 50.0812995,
      "lon": 14.4225931,
      "tags": {
        "amenity": "cafe",
        "email": "kavarna@cafecolore.cz",
        "internet_access": "wlan",
        "name": "Café Colore",
        "opening_hours": "Mo-Fr 08:00-23:00; Sa,Su 09:00-23:00",
        "phone": "+420 222 518 816",
        "website": "https://www.cafecolore.cz/",
        "wheelchair": "yes"
      }
    },
    {
      "type": "node",
      "id": 1233510867,
      "lat": 50.0811212,
      "lon": 14.423457,
      "tags": {
        "amenity": "cafe",
        "name": "Friends Coffee House",
        "wheelchair": "yes"
      }
    },
    {
      "type": "node",
      "id": 1248555565,
      "lat": 50.0698047,
      "lon": 14.4456531,
      "tags": {
        "addr:city": "Praha",
        "addr:country": "CZ",
        "addr:place": "Vinohrady",
        "addr:street": "Havlíčkovy sady",
        "addr:suburb": "Praha 2",
        "amenity": "cafe",
        "facebook": "https://www.facebook.com/pavilon.grebovka",
        "internet_access": "wlan",
        "internet_access:fee": "no",
        "name": "Pavilon Grébovka",
        "opening_hours": "Mo-Su 10:00-22:00",
        "outdoor_seating": "yes",
        "phone": "+420 725 000 334",
        "website": "http://www.pavilongrebovka.cz/",
        "wheelchair": "limited"
      }
    },
    {
      "type": "node",
      "id": 1257276111,
      "lat": 50.0832521,
      "lon": 14.414295,
      "tags": {
        "addr:city": "Praha",
        "addr:housenumber": "23",
        "addr:postcode": "11000",
        "addr:street": "Karoliny Světlé",
        "amenity": "cafe",
        "name": "Standard Cafe"
      }
    },
    {
      "type": "node",
      "id": 1257356267,
      "lat": 50.0802269,
      "lon": 14.4175287,
      "tags": {
        "amenity": "cafe",
        "name": "Nespresso"
      }
    },
    {
      "type": "node",
      "id": 1257356290,
      "lat": 50.0802106,
      "lon": 14.4183305,
      "tags": {
        "addr:city": "Praha",
        "addr:conscriptionnumber": "154",
        "addr:country": "CZ",
        "addr:housenumber": "154/26",
        "addr:place": "Nové Město",
        "addr:postcode": "11000",
        "addr:street": "Opatovická",
        "addr:streetnumber": "26",
        "addr:suburb": "Praha 1",
        "amenity": "cafe",
        "facebook": "https://www.facebook.com/Café-Jericho-67800434598/",
        "internet_access": "wlan",
        "internet_access:fee": "no",
        "name": "Café Jericho",
        "opening_hours": "Mo-Fr 00:00-01:00,10:00-24:00; Sa,Su 00:00-01:00,15:00-24:00",
        "ref:ruian:addr": "21702331",
        "source:addr": "cuzk:ruian",
        "website": "http://www.cafejericho.cz/"
      }
    },
    {
      "type": "node",
      "id": 1257356298,
      "lat": 50.0738642,
      "lon": 14.4176809,
      "tags": {
        "addr:city": "Praha",
        "addr:housenumber": "17",
        "addr:postcode": "12800",
        "addr:street": "Na Moráni",
        "amenity": "cafe",
        "internet_access": "wlan",
        "internet_access:fee": "no",
        "name": "Café Amandine",
        "operator": "Café Amandine",
        "outdoor_seating": "yes",
        "phone": "+420 222 524 305",
        "source": "local knowledge",
        "website": "http://www.cafeamandine.cz"
      }
    },
    {
      "type": "node",
      "id": 1257768347,
      "lat": 50.0757053,
      "lon": 14.4134514,
      "tags": {
        "amenity": "cafe",
        "name": "Kristian Marco",
        "note": "na lodi",
        "note:en": "on a boat"
      }
    },
    {
      "type": "node",
      "id": 1261026177,
      "lat": 50.1035588,
      "lon": 14.4743103,
      "tags": {
        "amenity": "cafe",
        "name": "Coffe To Go"
      }
    },
    {
      "type": "node",
      "id": 1261055302,
      "lat": 50.0991314,
      "lon": 14.469116,
      "tags": {
        "addr:city": "Praha",
        "addr:housenumber": "144",
        "addr:postcode": "18600",
        "addr:street": "Sokolovská",
        "amenity": "cafe",
        "internet_access": "wlan",
        "name": "Styx",
        "website": "http://clubstyx.cz"
      }
    },
    {
      "type": "node",
      "id": 1268311863,
      "lat": 50.0781231,
      "lon": 14.4192567,
      "tags": {
        "amenity": "cafe",
        "name": "Café Modi"
      }
    },
    {
      "type": "node",
      "id": 1271551665,
      "lat": 50.1025943,
      "lon": 14.4328497,
      "tags": {
        "amenity": "cafe",
        "name": "Brojo"
      }
    },
    {
      "type": "node",
      "id": 1271551673,
      "lat": 50.1023887,
      "lon": 14.4330112,
      "tags": {
        "amenity": "cafe",
        "name": "Sanini"
      }
    },
    {
      "type": "node",
      "id": 1278535498,
      "lat": 50.074303,
      "lon": 14.417345,
      "tags": {
        "amenity": "cafe",
        "name": "Boca Boca",
        "opening_hours": "Mo-Fr 07:30-22:00; Sa-Su 16:00-22:00"
      }
    },
    {
      "type": "node",
      "id": 1279427252,
      "lat": 50.0744711,
      "lon": 14.418355,
      "tags": {
        "addr:city": "Praha",
        "addr:conscriptionnumber": "315",
        "addr:country": "CZ",
        "addr:housenumber": "315/6",
        "addr:place": "Nové Město",
        "addr:postcode": "12000",
        "addr:street": "Karlovo náměstí",
        "addr:streetnumber": "6",
        "addr:suburb": "Praha 2",
        "amenity": "cafe",
        "name": "Svatováclavská cukrárna",
        "ref:ruian:addr": "21728330",
        "source:addr": "cuzk:ruian",
        "source:loc": "survey"
      }
    },
    {
      "type": "node",
      "id": 1298348881,
      "lat": 50.1003371,
      "lon": 14.4352331,
      "tags": {
        "addr:housenumber": "9",
        "addr:postcode": "17000",
        "addr:street": "Heřmanova",
        "amenity": "cafe",
        "internet_access": "wlan",
        "name": "Sedmý smysl",
        "opening_hours": "Mo-Fr 08:00-23:00; Su 09:00-20:00; Sa 09:00-23:00"
      }
    },
    {
      "type": "node",
      "id": 1313997409,
      "lat": 50.1003385,
      "lon": 14.4348642,
      "tags": {
        "addr:housenumber": "14",
        "addr:street": "Janovského",
        "amenity": "cafe",
        "cuisine": "coffee_shop",
        "internet_access": "terminal",
        "internet_access:fee": "no",
        "name": "Ouky Douky",
        "opening_hours": "Mo-Su 08:00-24:00",
        "smoking": "separated",
        "website": "http://www.oukydouky.cz/"
      }
    },
    {
      "type": "node",
      "id": 1314617699,
      "lat": 50.0992473,
      "lon": 14.4234406,
      "tags": {
        "amenity": "cafe",
        "cuisine": "coffee_shop",
        "name": "Dům kávy",
        "opening_hours": "Mo-Fr 09:00-19:00",
        "website": "http://www.dumkavy.cz/",
        "wifi": "free"
      }
    },
    {
      "type": "node",
      "id": 1315100343,
      "lat": 50.1006463,
      "lon": 14.4343918,
      "tags": {
        "addr:housenumber": "12",
        "addr:street": "Heřmanova",
        "amenity": "cafe",
        "cuisine": "coffee_shop",
        "internet_access": "wlan",
        "internet_access:fee": "no",
        "name": "Kumbál - Mléčný bar",
        "opening_hours": "Sa-Su 09:00-21:30; Mo-Fr 08:00-21:30",
        "phone": "+420604959323",
        "smoking": "no",
        "wheelchair": "limited"
      }
    },
    {
      "type": "node",
      "id": 1317088234,
      "lat": 50.0935184,
      "lon": 14.455158,
      "tags": {
        "addr:city": "Praha",
        "addr:housenumber": "105",
        "addr:postcode": "18600",
        "addr:street": "Křižíkova",
        "amenity": "cafe",
        "name": "Můj šálek kávy",
        "opening_hours": "Mo-Sa 09:00-22:00, Su 10:00-18:00",
        "website": "http://mujsalekkavy.cz",
        "wifi": "free"
      }
    },
    {
      "type": "node",
      "id": 1319826500,
      "lat": 50.0649362,
      "lon": 14.4402561,
      "tags": {
        "addr:city": "Praha",
        "addr:conscriptionnumber": "339",
        "addr:housenumber": "339/4",
        "addr:postcode": "140 00",
        "addr:street": "Bělehradská",
        "addr:streetnumber": "4",
        "amenity": "cafe",
        "name": "Baretta Café",
        "opening_hours": "Mo-Fr 08:00-23:00; Sa 11:00-23:00; Su 12:00-23:00",
        "phone": "+420 261 215 622",
        "source": "local_knowledge",
        "website": "http://www.baretta.cz"
      }
    },
    {
      "type": "node",
      "id": 1322873191,
      "lat": 50.075763,
      "lon": 14.4437591,
      "tags": {
        "addr:city": "Praha",
        "addr:conscriptionnumber": "991",
        "addr:country": "CZ",
        "addr:housenumber": "991/31",
        "addr:place": "Vinohrady",
        "addr:postcode": "12000",
        "addr:street": "Šumavská",
        "addr:streetnumber": "31",
        "addr:suburb": "Praha 2",
        "amenity": "cafe",
        "internet_access": "wlan",
        "internet_access:fee": "no",
        "name": "Na Šumavě",
        "opening_hours": "Mo-Fr 15:00-22:00",
        "phone": "+420 775 688 180",
        "ref:ruian:addr": "21749370",
        "source:addr": "cuzk:ruian",
        "source:loc": "survey",
        "website": "https://www.kavarnanasumave.cz/"
      }
    },
    {
      "type": "node",
      "id": 1336753550,
      "lat": 50.0873656,
      "lon": 14.4003203,
      "tags": {
        "amenity": "cafe",
        "name": "Café & wine boutique"
      }
    },
    {
      "type": "node",
      "id": 1341417426,
      "lat": 50.0721074,
      "lon": 14.4699957,
      "tags": {
        "amenity": "cafe",
        "name": "History"
      }
    },
    {
      "type": "node",
      "id": 1408745455,
      "lat": 50.1223639,
      "lon": 14.4555789,
      "tags": {
        "amenity": "cafe",
        "name": "U Nováků",
        "shop": "confectionery"
      }
    },
    {
      "type": "node",
      "id": 1413772452,
      "lat": 50.0835076,
      "lon": 14.3949897,
      "tags": {
        "addr:city": "Praha",
        "addr:country": "CZ",
        "addr:place": "Malá Strana",
        "addr:postcode": "11800",
        "addr:street": "Petřínské sady",
        "addr:suburb": "Praha 1",
        "amenity": "cafe",
        "facebook": "https://www.facebook.com/Petřínská-kavárna-916157501780343/",
        "level": "0",
        "name": "Petřínská kavárna",
        "opening_hours": "Mo-Su 10:00-22:00",
        "outdoor_seating": "yes",
        "phone": "+420 728 459 429",
        "source": "survey",
        "website": "http://www.muzeumprahy.cz/"
      }
    },
    {
      "type": "node",
      "id": 1416497151,
      "lat": 50.0381398,
      "lon": 14.5170765,
      "tags": {
        "amenity": "cafe",
        "name": "Dendrit Kafé"
      }
    },
    {
      "type": "node",
      "id": 1426550122,
      "lat": 50.1011511,
      "lon": 14.3979993,
      "tags": {
        "amenity": "cafe",
        "name": "Kavárna"
      }
    },
    {
      "type": "node",
      "id": 1426550130,
      "lat": 50.0996718,
      "lon": 14.3961042,
      "tags": {
        "amenity": "cafe",
        "name": "Starbucks",
        "operator": "Starbucks"
      }
    },
    {
      "type": "node",
      "id": 1428590840,
      "lat": 50.0999145,
      "lon": 14.3976446,
      "tags": {
        "amenity": "cafe",
        "name": "Cafe Nahore",
        "website": "http://nahoreadole.cz/en/home/"
      }
    },
    {
      "type": "node",
      "id": 1431740987,
      "lat": 50.0984593,
      "lon": 14.3981081,
      "tags": {
        "amenity": "cafe",
        "breakfast": "yes",
        "name": "Cafe Calma",
        "wheelchair": "yes"
      }
    },
    {
      "type": "node",
      "id": 1432464500,
      "lat": 50.0843224,
      "lon": 14.4153668,
      "tags": {
        "addr:city": "Praha",
        "addr:housenumber": "10",
        "addr:postcode": "11000",
        "addr:street": "Náprstkova",
        "amenity": "cafe",
        "internet_access": "wlan",
        "internet_access:fee": "no",
        "name": "Café Kampus",
        "opening_hours": "Mo-Fr 10:00-1:00; Sa 12:00-1:00; Su 12:00-23:00",
        "smoking": "separated",
        "website": "http://cafekampus.cz/"
      }
    },
    {
      "type": "node",
      "id": 1490369623,
      "lat": 50.1037769,
      "lon": 14.4347636,
      "tags": {
        "amenity": "cafe",
        "name": "Kafí"
      }
    },
    {
      "type": "node",
      "id": 1492720773,
      "lat": 50.0978689,
      "lon": 14.4312245,
      "tags": {
        "amenity": "cafe",
        "cuisine": "mediterranean",
        "name": "Vila Baltika",
        "name:cs": "Bistro Kostelni16",
        "name:en": "Bistro Kostelni16",
        "opening_hours": "Mo-Sa 11:00-22:00"
      }
    },
    {
      "type": "node",
      "id": 1494661542,
      "lat": 50.0992879,
      "lon": 14.4002431,
      "tags": {
        "amenity": "cafe",
        "cuisine": "teahouse",
        "name": "Dejvická čajovna",
        "opening_hours": "Mo-Fr 12:00-22:00, Sa,Su 14:00-22:00"
      }
    },
    {
      "type": "node",
      "id": 1506273220,
      "lat": 50.1299142,
      "lon": 14.4687332,
      "tags": {
        "addr:conscriptionnumber": "1151",
        "addr:housenumber": "1151/12",
        "addr:postcode": "18200",
        "addr:street": "Burešova",
        "addr:streetnumber": "12",
        "amenity": "cafe",
        "name": "Tichá kavárna",
        "opening_hours": "Mo-Su 13:00-21:00",
        "outdoor_seating": "yes",
        "payment:coins": "yes",
        "payment:notes": "yes",
        "source:addr": "uir_adr",
        "uir_adr:ADRESA_KOD": "22368744",
        "website": "www.tichakavarna.cz",
        "wheelchair": "yes"
      }
    },
    {
      "type": "node",
      "id": 1507170531,
      "lat": 50.0750337,
      "lon": 14.428824,
      "tags": {
        "addr:city": "Praha",
        "addr:housenumber": "31",
        "addr:postcode": "12000",
        "addr:street": "Sokolská",
        "amenity": "cafe",
        "name": "Café B. Braun",
        "website": "http://www.cafe-bbraun.cz/"
      }
    },
    {
      "type": "node",
      "id": 1512478512,
      "lat": 50.0714995,
      "lon": 14.4774135,
      "tags": {
        "addr:city": "Praha",
        "addr:housenumber": "3",
        "addr:postcode": "10000",
        "addr:street": "Kubánské náměstí",
        "amenity": "cafe",
        "cuisine": "coffee_shop",
        "name": "Kavárna a cukrárna Lilly",
        "outdoor_seating": "yes"
      }
    },
    {
      "type": "node",
      "id": 1526165848,
      "lat": 50.0740328,
      "lon": 14.4337763,
      "tags": {
        "addr:city": "Praha 2",
        "addr:housenumber": "49",
        "addr:postcode": "12000",
        "addr:street": "Londýnská",
        "amenity": "cafe",
        "name": "Mama Coffee",
        "opening_hours": "Mo-Fr 08:30-20:00; Sa,Su 10:00-18:00",
        "outdoor_seating": "yes",
        "phone": "+420 773 263 333",
        "smoking": "outside",
        "website": "https://www.mamacoffee.cz/"
      }
    },
    {
      "type": "node",
      "id": 1529352759,
      "lat": 50.0982099,
      "lon": 14.4018683,
      "tags": {
        "amenity": "cafe",
        "name": "Hudební kavárna bebop"
      }
    },
    {
      "type": "node",
      "id": 1539756782,
      "lat": 50.1112388,
      "lon": 14.4980758,
      "tags": {
        "amenity": "cafe",
        "name": "Café Amarilis"
      }
    },
    {
      "type": "node",
      "id": 1539756784,
      "lat": 50.1112851,
      "lon": 14.4976064,
      "tags": {
        "amenity": "cafe",
        "name": "Rubeškafé"
      }
    },
    {
      "type": "node",
      "id": 1680404501,
      "lat": 50.0875184,
      "lon": 14.4028651,
      "tags": {
        "addr:city": "Praha",
        "addr:housenumber": "9",
        "addr:postcode": "11800",
        "addr:street": "Malostranské náměstí",
        "amenity": "cafe",
        "name": "A studio Rubín",
        "website": "www.astudiorubin.cz/"
      }
    },
    {
      "type": "node",
      "id": 1680404556,
      "lat": 50.0876624,
      "lon": 14.4028341,
      "tags": {
        "amenity": "cafe",
        "name": "Cafeteria Ferrari"
      }
    },
    {
      "type": "node",
      "id": 1695234819,
      "lat": 50.0779982,
      "lon": 14.4229879,
      "tags": {
        "amenity": "cafe",
        "email": "info@kolibka.cz",
        "internet_access": "yes",
        "internet_access:fee": "no",
        "name": "Kolíbka",
        "opening_hours": "Mo-Fr 11:00-24:00; Sa-Su 17:00-23:00",
        "phone": "+420 797 996 359",
        "smoking": "no",
        "website": "http://www.kolibka.cz/",
        "wheelchair": "no"
      }
    },
    {
      "type": "node",
      "id": 1695260135,
      "lat": 50.0785453,
      "lon": 14.4218718,
      "tags": {
        "amenity": "cafe",
        "internet_access": "yes",
        "internet_access:fee": "no",
        "name": "mamacoffee",
        "opening_hours": "Mo-Fr 08:00-22:00, Sa-Su 10:00-22:00",
        "phone": "+420773337309",
        "smoking": "no",
        "website": "https://www.mamacoffee.cz/content/vodickova/",
        "wheelchair": "no"
      }
    },
    {
      "type": "node",
      "id": 1700848537,
      "lat": 50.0769308,
      "lon": 14.4394883,
      "tags": {
        "addr:city": "Praha",
        "addr:conscriptionnumber": "2110",
        "addr:country": "CZ",
        "addr:housenumber": "2110/2b",
        "addr:place": "Nové Město",
        "addr:postcode": "18600",
        "addr:street": "Křižíkova",
        "addr:streetnumber": "2b",
        "addr:suburb": "Praha 8",
        "amenity": "cafe",
        "internet_access": "wlan",
        "internet_access:fee": "no",
        "name": "Al Cafetero",
        "opening_hours": "Mo-Th 09:00-22:00; Fr 09:00-18:00",
        "phone": "+420 777 061 161",
        "ref:ruian:addr": "27849317",
        "smoking": "no",
        "source:addr": "cuzk:ruian",
        "source:loc": "survey",
        "website": "http://www.alcafetero.cz/"
      }
    },
    {
      "type": "node",
      "id": 1760413362,
      "lat": 50.0731502,
      "lon": 14.4484735,
      "tags": {
        "addr:city": "Praha",
        "addr:conscriptionnumber": "2508",
        "addr:country": "CZ",
        "addr:housenumber": "2508/1",
        "addr:place": "Vinohrady",
        "addr:postcode": "12000",
        "addr:street": "sady Bratří Čapků",
        "addr:streetnumber": "1",
        "addr:suburb": "Praha 2",
        "amenity": "cafe",
        "cuisine": "pizza",
        "internet_access": "wlan",
        "internet_access:fee": "no",
        "name": "Kafárna Na kus řeči",
        "opening_hours": "Mo-Su 00:00-01:00,13:00-24:00",
        "outdoor_seating": "yes",
        "phone": "+420 222 512 580",
        "ref:ruian:addr": "22717013",
        "smoking": "outside",
        "source:addr": "cuzk:ruian",
        "source:loc": "survey",
        "takeaway": "yes",
        "terrace": "yes",
        "website": "https://www.kafarna.cz/",
        "wheelchair": "no"
      }
    },
    {
      "type": "node",
      "id": 1763372582,
      "lat": 50.0807743,
      "lon": 14.4071636,
      "tags": {
        "addr:city": "Praha",
        "addr:housenumber": "68",
        "addr:postcode": "15000",
        "addr:street": "Zborovská",
        "amenity": "cafe",
        "name": "Kavárna V sedmém nebi",
        "opening_hours": "Mo-Fr 10:00-01:00; Sa-Su 14:00-01:00",
        "phone": "+420 257 318 110"
      }
    },
    {
      "type": "node",
      "id": 1764231735,
      "lat": 50.041634,
      "lon": 14.5596679,
      "tags": {
        "amenity": "cafe",
        "name": "Café Verona",
        "opening_hours": "Mo-Fr 11:00-18:00"
      }
    },
    {
      "type": "node",
      "id": 1776247750,
      "lat": 50.0839142,
      "lon": 14.5094024,
      "tags": {
        "amenity": "cafe",
        "cuisine": "ice_cream",
        "name": "Lucerna"
      }
    },
    {
      "type": "node",
      "id": 1781427365,
      "lat": 50.0244502,
      "lon": 14.4331169,
      "tags": {
        "amenity": "cafe"
      }
    },
    {
      "type": "node",
      "id": 1813147572,
      "lat": 50.1174338,
      "lon": 14.4064845,
      "tags": {
        "addr:city": "Praha",
        "addr:country": "CZ",
        "addr:place": "Troja",
        "addr:postcode": "17100",
        "addr:suburb": "Praha-Troja",
        "amenity": "cafe",
        "name": "Černohouska",
        "outdoor_seating": "yes",
        "shop": "confectionery",
        "smoking": "no",
        "source": "survey",
        "website": "https://www.zoopraha.cz/"
      }
    },
    {
      "type": "node",
      "id": 1813797277,
      "lat": 50.086481,
      "lon": 14.4041269,
      "tags": {
        "addr:city": "Praha",
        "addr:conscriptionnumber": "376",
        "addr:country": "CZ",
        "addr:housenumber": "376/20",
        "addr:place": "Malá Strana",
        "addr:postcode": "11800",
        "addr:street": "Karmelitská",
        "addr:streetnumber": "20",
        "addr:suburb": "Praha 1",
        "amenity": "cafe",
        "cuisine": "sandwich",
        "facebook": "https://www.facebook.com/UZlatehoPstrosa/",
        "internet_access": "no",
        "name": "U Zlatého pštrosa",
        "opening_hours": "Mo-Fr 08:00-18:00; Sa 10:00-17:00; Su 11:00-17:00",
        "phone": "+420 724 828 217",
        "ref:ruian:addr": "21698376",
        "smoking": "no",
        "source:addr": "cuzk:ruian",
        "source:loc": "survey",
        "wheelchair": "no"
      }
    },
    {
      "type": "node",
      "id": 1813797283,
      "lat": 50.085916,
      "lon": 14.4081785,
      "tags": {
        "amenity": "cafe",
        "name": "Botega"
      }
    },
    {
      "type": "node",
      "id": 1813901507,
      "lat": 50.0762765,
      "lon": 14.4269401,
      "tags": {
        "amenity": "cafe"
      }
    },
    {
      "type": "node",
      "id": 1823160812,
      "lat": 50.1171213,
      "lon": 14.4169017,
      "tags": {
        "amenity": "cafe",
        "name": "Kavárnička",
        "outdoor_seating": "yes"
      }
    },
    {
      "type": "node",
      "id": 1902985231,
      "lat": 50.0779014,
      "lon": 14.4400676,
      "tags": {
        "addr:city": "Praha",
        "addr:conscriptionnumber": "992",
        "addr:country": "CZ",
        "addr:housenumber": "992/38",
        "addr:place": "Vinohrady",
        "addr:postcode": "12000",
        "addr:street": "Mánesova",
        "addr:streetnumber": "38",
        "addr:suburb": "Praha 2",
        "amenity": "cafe",
        "name": "Čajovna Pod stromem čajovým",
        "opening_hours": "Mo-Su 14:00-22:00",
        "phone": "+420 223 011 050",
        "ref:ruian:addr": "21749388",
        "source:addr": "cuzk:ruian",
        "source:loc": "survey",
        "website": "http://www.cajovnapodstromem.cz/"
      }
    },
    {
      "type": "node",
      "id": 1947157418,
      "lat": 50.0889093,
      "lon": 14.4199261,
      "tags": {
        "addr:city": "Praha",
        "addr:housenumber": "10",
        "addr:postcode": "11000",
        "addr:street": "Pařížská",
        "amenity": "cafe",
        "cuisine": "coffee_shop",
        "name": "Nespresso",
        "name:he": "חנות נספרסו פראג 1"
      }
    },
    {
      "type": "node",
      "id": 1948155686,
      "lat": 50.0879259,
      "lon": 14.4194055,
      "tags": {
        "addr:city": "Praha",
        "addr:conscriptionnumber": "24",
        "addr:housenumber": "24/3",
        "addr:postcode": "11000",
        "addr:street": "náměstí Franze Kafky",
        "addr:streetnumber": "3",
        "amenity": "cafe",
        "name": "Cafe Kafka"
      }
    },
    {
      "type": "node",
      "id": 1948155689,
      "lat": 50.08679,
      "lon": 14.4209933,
      "tags": {
        "addr:city": "Praha",
        "addr:housenumber": "22",
        "addr:postcode": "11000",
        "addr:street": "Staroměstské náměstí",
        "amenity": "cafe",
        "name": "Café Mozart"
      }
    },
    {
      "type": "node",
      "id": 1948155703,
      "lat": 50.0897644,
      "lon": 14.4236618,
      "tags": {
        "addr:city": "Praha 1",
        "addr:housenumber": "20",
        "addr:postcode": "11000",
        "addr:street": "Dlouhá",
        "amenity": "cafe",
        "name": "Follow Me"
      }
    },
    {
      "type": "node",
      "id": 1948155721,
      "lat": 50.086081,
      "lon": 14.4180965,
      "tags": {
        "addr:city": "Praha",
        "addr:housenumber": "17",
        "addr:postcode": "11000",
        "addr:street": "Karlova",
        "amenity": "cafe",
        "name": "Caffé Per Lei"
      }
    },
    {
      "type": "node",
      "id": 1948155724,
      "lat": 50.0890754,
      "lon": 14.3985057,
      "tags": {
        "addr:city": "Praha",
        "addr:country": "CZ",
        "addr:suburb": "Praha 1",
        "amenity": "cafe",
        "cuisine": "coffee_shop",
        "internet_access": "wlan",
        "internet_access:fee": "no",
        "name": "Starbucks",
        "opening_hours": "Mo-Fr 09:00-18:30; Sa,Su 09:00-19:30",
        "outdoor_seating": "yes",
        "smoking": "no",
        "source": "survey",
        "website": "http://www.starbuckscoffee.cz/",
        "wheelchair": "no"
      }
    },
    {
      "type": "node",
      "id": 1948155838,
      "lat": 50.0896834,
      "lon": 14.4338716,
      "tags": {
        "addr:city": "Praha 1",
        "addr:housenumber": "24",
        "addr:postcode": "11000",
        "addr:street": "Na Poříčí",
        "amenity": "cafe",
        "internet_access": "wlan",
        "name": "Starbucks",
        "opening_hours": "Mo-Fr 07:30-22:00; Sa-Su 07:30-21:00",
        "phone": "+420 222 316 875",
        "website": "www.starbuckscoffee.cz"
      }
    },
    {
      "type": "node",
      "id": 1977821253,
      "lat": 50.0877303,
      "lon": 14.4218858,
      "tags": {
        "addr:city": "Praha",
        "addr:housenumber": "13",
        "addr:postcode": "11000",
        "addr:street": "Staroměstské náměstí",
        "amenity": "cafe",
        "name": "At the Bell"
      }
    },
    {
      "type": "node",
      "id": 1977833997,
      "lat": 50.0842751,
      "lon": 14.4168901,
      "tags": {
        "addr:city": "Praha",
        "addr:housenumber": "2",
        "addr:postcode": "11000",
        "addr:street": "Betlémské náměstí",
        "amenity": "cafe",
        "name": "Andalous Shisha Lounge"
      }
    },
    {
      "type": "node",
      "id": 1977833998,
      "lat": 50.0845746,
      "lon": 14.4166192,
      "tags": {
        "addr:city": "Praha",
        "addr:housenumber": "4",
        "addr:postcode": "11000",
        "addr:street": "Liliová",
        "amenity": "cafe",
        "email": "info@choco-cafe.cz",
        "internet_access": "wlan",
        "internet_access:fee": "no",
        "name": "Choco-Café U Červené židle",
        "opening_hours": "Mo-Su 10:00-20:00",
        "payment:cash": "yes",
        "payment:credit_cards": "yes",
        "payment:debit_cards": "yes",
        "phone": "+420 222 222 519",
        "reservation": "only by phone",
        "smoking": "no",
        "toilets:wheelchair": "yes",
        "website": "https://www.choco-cafe.cz/",
        "wheelchair": "limited"
      }
    },
    {
      "type": "node",
      "id": 2012033689,
      "lat": 50.0952151,
      "lon": 14.3813719,
      "tags": {
        "amenity": "cafe",
        "facebook": "https://www.facebook.com/bistro.orechovka/",
        "name": "Bistro Ořechovka",
        "opening_hours": "Mo-Fr 09:00-22:00; Sa 09:00-18:00",
        "phone": "+420 778 067 778",
        "source": "common knowledge",
        "website": "http://www.bistroorechovka.cz/"
      }
    },
    {
      "type": "node",
      "id": 2026305031,
      "lat": 50.0753335,
      "lon": 14.4311308,
      "tags": {
        "addr:city": "Praha",
        "addr:housenumber": "6",
        "addr:postcode": "12000",
        "addr:street": "Jugoslávská",
        "amenity": "cafe",
        "diet:vegetarian": "yes",
        "internet_access": "wlan",
        "name": "Paul",
        "opening_hours": "Mo-Fr 06:30-22:00; Sa,Su 07:30-21:00"
      }
    },
    {
      "type": "node",
      "id": 2035703150,
      "lat": 50.1045085,
      "lon": 14.4771762,
      "tags": {
        "addr:city": "Praha 8",
        "addr:housenumber": "10",
        "addr:postcode": "18000",
        "addr:street": "Vacínova",
        "amenity": "cafe",
        "email": "decada@decada.cz",
        "internet_access": "wlan",
        "name": "Decada",
        "opening_hours": "Mo-Fr 8:00-0:00, Sa-Su 16:00-0:00",
        "outdoor_seating": "yes",
        "payment:bitcoin": "yes",
        "phone": "+420 774 446 474",
        "takeaway": "yes",
        "website": "http://www.decada.cz"
      }
    },
    {
      "type": "node",
      "id": 2041874118,
      "lat": 50.0852912,
      "lon": 14.4074003,
      "tags": {
        "addr:city": "Praha",
        "addr:conscriptionnumber": "470",
        "addr:country": "CZ",
        "addr:housenumber": "470/8",
        "addr:place": "Malá Strana",
        "addr:postcode": "11800",
        "addr:street": "Nosticova",
        "addr:streetnumber": "8",
        "addr:suburb": "Praha 1",
        "amenity": "cafe",
        "beer_garden": "yes",
        "name": "Nad Čertovkou",
        "opening_hours": "Mo-Su 11:00-20:00",
        "outdoor_seating": "yes",
        "ref:ruian:addr": "21699526",
        "source:addr": "cuzk:ruian",
        "source:loc": "survey",
        "website": "http://www.nadcertovkou.cz/"
      }
    },
    {
      "type": "node",
      "id": 2146396356,
      "lat": 50.003662,
      "lon": 14.4052192,
      "tags": {
        "amenity": "cafe",
        "name": "Cukrárná Snídejte Šampaňské"
      }
    },
    {
      "type": "node",
      "id": 2166856897,
      "lat": 50.0897734,
      "lon": 14.4406687,
      "tags": {
        "addr:city": "Praha",
        "addr:conscriptionnumber": "344",
        "addr:country": "CZ",
        "addr:housenumber": "344/6",
        "addr:place": "Karlín",
        "addr:postcode": "18600",
        "addr:street": "Křižíkova",
        "addr:streetnumber": "6",
        "addr:suburb": "Praha 8",
        "amenity": "cafe",
        "internet_access": "wlan",
        "internet_access:fee": "no",
        "name": "Cross Cafe",
        "opening_hours": "Mo-Su 06:30-20:00",
        "phone": "+420 608 305 035",
        "ref:ruian:addr": "22352139",
        "source:addr": "cuzk:ruian",
        "website": "https://www.crosscafe.cz/"
      }
    },
    {
      "type": "node",
      "id": 2197055491,
      "lat": 50.0721773,
      "lon": 14.438305,
      "tags": {
        "amenity": "cafe",
        "diet:vegetarian": "yes",
        "email": "info@kavarnazanzibar.cz",
        "internet_access": "wlan",
        "internet_access:fee": "no",
        "name": "Zanzibar",
        "opening_hours": "Mo-Th 08:00-23:00; Fr 08:00-24:00; Sa 10:00-24:00; Su 10:00-23:00",
        "outdoor_seating": "yes",
        "payment:mastercard": "yes",
        "payment:visa": "yes",
        "phone": "+420 222 520 315",
        "smoking": "outside",
        "source": "survey",
        "website": "http://kavarnazanzibar.cz"
      }
    },
    {
      "type": "node",
      "id": 2199109117,
      "lat": 50.1344497,
      "lon": 14.4186836,
      "tags": {
        "amenity": "cafe",
        "internet_access": "wlan",
        "name": "Klub V kolona",
        "website": "http://www.greendoors.cz"
      }
    },
    {
      "type": "node",
      "id": 2203077511,
      "lat": 50.0375,
      "lon": 14.4121202,
      "tags": {
        "addr:housenumber": "43",
        "addr:postcode": "147 00",
        "addr:street": "Branická",
        "amenity": "cafe",
        "name": "Deli Café",
        "source": "survey",
        "website": "http://www.deli-shop.cz/cs/content/deli-cafe"
      }
    },
    {
      "type": "node",
      "id": 2203079546,
      "lat": 50.0370314,
      "lon": 14.4123991,
      "tags": {
        "addr:city": "Praha 4",
        "addr:housenumber": "49",
        "addr:postcode": "147 00",
        "addr:street": "Branická",
        "amenity": "cafe",
        "name": "Periferie Cafe",
        "opening_hours": "Mo-Fr 09:00-22:00, Sa 13:00-22:00, Su 14:00-20:00",
        "source": "survey",
        "website": "http://www.periferiecafe.cz"
      }
    },
    {
      "type": "node",
      "id": 2249429523,
      "lat": 50.0842053,
      "lon": 14.4322793,
      "tags": {
        "addr:city": "Praha",
        "addr:housenumber": "10",
        "addr:postcode": "11000",
        "addr:street": "Jeruzalémská",
        "amenity": "cafe",
        "cuisine": "teahouse",
        "name": "Čajovna Cha Dao / Orijin",
        "opening_hours": "Mo-Fr 10:00-20:00; Jan-Jun,Sep-Dec Sa 11:00-18:00",
        "website": "https://www.orijin.cz/"
      }
    },
    {
      "type": "node",
      "id": 2249429526,
      "lat": 50.0739839,
      "lon": 14.4160972,
      "tags": {
        "amenity": "cafe",
        "cuisine": "teahouse",
        "facebook": "https://www.facebook.com/Darumacaj/",
        "internet_access": "wlan",
        "internet_access:fee": "no",
        "name": "Čajovna Daruma",
        "opening_hours": "Mo-Fr 10:00-22:00; Sa,Su 12:00-22:00",
        "phone": "+420 603 193 505",
        "source": "survey",
        "website": "https://daruma-tea.cz/"
      }
    },
    {
      "type": "node",
      "id": 2249429530,
      "lat": 50.0791615,
      "lon": 14.4517625,
      "tags": {
        "amenity": "cafe",
        "cuisine": "teahouse",
        "name": "Čajovna Tea Tao"
      }
    },
    {
      "type": "node",
      "id": 2249429535,
      "lat": 50.0756464,
      "lon": 14.4313661,
      "tags": {
        "addr:city": "Praha",
        "addr:housenumber": "7",
        "addr:postcode": "12000",
        "addr:street": "Jugoslávská",
        "amenity": "cafe",
        "cuisine": "teahouse",
        "name": "Čajovna U Džoudyho"
      }
    },
    {
      "type": "node",
      "id": 2260242116,
      "lat": 50.0716145,
      "lon": 14.4608604,
      "tags": {
        "addr:city": "Praha",
        "addr:conscriptionnumber": "924",
        "addr:country": "CZ",
        "addr:housenumber": "924/26",
        "addr:place": "Vršovice",
        "addr:postcode": "10100",
        "addr:street": "Bulharská",
        "addr:streetnumber": "26",
        "addr:suburb": "Praha 10",
        "amenity": "cafe",
        "facebook": "https://www.facebook.com/CanapeCafeCZ/",
        "name": "Canape cafe & bar",
        "old_name": "pivní bar U Cibicha",
        "opening_hours": "Mo-Fr 15:00-23:00; Sa 17:00-23:00; Su 15:00-21:00",
        "phone": "+420 728 140 108",
        "ref:ruian:addr": "22665633",
        "source:addr": "cuzk:ruian",
        "source:loc": "survey",
        "website": "http://www.canapecafe.cz/"
      }
    },
    {
      "type": "node",
      "id": 2260242135,
      "lat": 50.0687533,
      "lon": 14.4573681,
      "tags": {
        "amenity": "cafe",
        "name": "Cafe Bar",
        "source": "survey"
      }
    },
    {
      "type": "node",
      "id": 2269090813,
      "lat": 50.0718938,
      "lon": 14.4071449,
      "tags": {
        "addr:city": "Praha 5",
        "addr:housenumber": "22",
        "addr:postcode": "15000",
        "addr:street": "Staropramenná",
        "addr:streetnumber": "724/22",
        "amenity": "cafe",
        "brewery": "Černá hora",
        "email": "ondrej.nemec.ml@gmail.com",
        "internet_access": "wlan",
        "name": "Kavárna Jarda Mayer",
        "opening_hours": "Mo-Fr 15:00-24:00; Sa-Su 17:00-24:00",
        "phone": "+420 606047800",
        "smoking": "yes",
        "source": "local_knowledge",
        "website": "http://www.kavarnajardamayer.cz/"
      }
    },
    {
      "type": "node",
      "id": 2269120697,
      "lat": 50.0833525,
      "lon": 14.4267748,
      "tags": {
        "amenity": "cafe",
        "brewery": "Bernard",
        "email": "unijazz@unijazz.cz",
        "internet_access": "wlan",
        "name": "Unijazz",
        "phone": "+420 224 261 006",
        "source": "local_knowledge",
        "website": "http://www.unijazz.cz"
      }
    },
    {
      "type": "node",
      "id": 2299392862,
      "lat": 50.0559896,
      "lon": 14.3111634,
      "tags": {
        "amenity": "cafe",
        "name": "Cafe restaurant Sconto"
      }
    },
    {
      "type": "node",
      "id": 2305988765,
      "lat": 50.0590953,
      "lon": 14.4208432,
      "tags": {
        "addr:city": "Praha",
        "addr:housenumber": "29",
        "addr:postcode": "14700",
        "addr:street": "Podolská",
        "amenity": "cafe",
        "cuisine": "ice_cream",
        "name": "Cukrárna u Michala"
      }
    },
    {
      "type": "node",
      "id": 2338683459,
      "lat": 50.0982613,
      "lon": 14.3885157,
      "tags": {
        "amenity": "cafe",
        "internet_access": "wlan",
        "name": "Klubovna",
        "website": "http://klubovna.povalec.cz/"
      }
    },
    {
      "type": "node",
      "id": 2374719379,
      "lat": 50.1008103,
      "lon": 14.4335942,
      "tags": {
        "addr:city": "Praha 7",
        "addr:housenumber": "26",
        "addr:postcode": "17000",
        "addr:street": "Dukelských hrdinů",
        "amenity": "cafe",
        "internet_access": "yes",
        "name": "U Hrdinů",
        "opening_hours": "Mo-Sa 14:00-02:00; Su 14:00-00:00",
        "payment:bitcoin": "yes",
        "smoking": "outside",
        "website": "https://www.studiohrdinu.cz/kavarna/"
      }
    },
    {
      "type": "node",
      "id": 2375920052,
      "lat": 50.0503739,
      "lon": 14.437047,
      "tags": {
        "amenity": "cafe",
        "name": "Café Niveau"
      }
    },
    {
      "type": "node",
      "id": 2375920056,
      "lat": 50.0507147,
      "lon": 14.4393421,
      "tags": {
        "amenity": "cafe",
        "name": "Café Arkádia"
      }
    },
    {
      "type": "node",
      "id": 2407308936,
      "lat": 50.0869306,
      "lon": 14.421279,
      "tags": {
        "amenity": "cafe",
        "brand": "Starbucks",
        "internet_access": "wlan",
        "internet_access:fee": "no",
        "level": "0;1",
        "name": "Starbucks",
        "takeaway": "yes"
      }
    },
    {
      "type": "node",
      "id": 2408146793,
      "lat": 50.078163,
      "lon": 14.4483946,
      "tags": {
        "addr:city": "Praha",
        "addr:conscriptionnumber": "1407",
        "addr:country": "CZ",
        "addr:housenumber": "1407/4",
        "addr:place": "Vinohrady",
        "addr:postcode": "12000",
        "addr:street": "náměstí Jiřího z Poděbrad",
        "addr:streetnumber": "4",
        "addr:suburb": "Praha 2",
        "amenity": "cafe",
        "contact:email": "cafefin@photuanlan.com",
        "contact:facebook": "https://www.facebook.com/cafefinvpraze/",
        "contact:website": "https://www.cafefinvpraze.com/",
        "name": "Cafefin",
        "opening_hours": "Mo-Sa 08:00-21:00; Su 10:00-19:30",
        "outdoor_seating": "yes",
        "ref:ruian:addr": "21753385",
        "source:addr": "cuzk:ruian",
        "source:loc": "survey"
      }
    },
    {
      "type": "node",
      "id": 2409213380,
      "lat": 50.0777177,
      "lon": 14.4563187,
      "tags": {
        "addr:city": "Praha",
        "addr:conscriptionnumber": "2022",
        "addr:country": "CZ",
        "addr:housenumber": "2022/125",
        "addr:place": "Vinohrady",
        "addr:postcode": "13000",
        "addr:street": "Vinohradská",
        "addr:streetnumber": "125",
        "addr:suburb": "Praha 3",
        "amenity": "cafe",
        "name": "Erhartova cukrárna",
        "opening_hours": "Mo-Su 10:00-19:00",
        "phone": "+420 273 130 574",
        "ref:ruian:addr": "21763640",
        "shop": "confectionery",
        "source:addr": "cuzk:ruian",
        "source:loc": "survey",
        "website": "http://www.erhartovacukrarna.cz/"
      }
    },
    {
      "type": "node",
      "id": 2409213394,
      "lat": 50.0776845,
      "lon": 14.4617525,
      "tags": {
        "amenity": "cafe",
        "name": "Madal Bal"
      }
    },
    {
      "type": "node",
      "id": 2409856151,
      "lat": 50.0780038,
      "lon": 14.447897,
      "tags": {
        "amenity": "cafe",
        "cuisine": "teahouse",
        "name": "Ryba na ruby"
      }
    },
    {
      "type": "node",
      "id": 2410348760,
      "lat": 50.0786105,
      "lon": 14.450092,
      "tags": {
        "addr:city": "Praha",
        "addr:housenumber": "9",
        "addr:postcode": "13000",
        "addr:street": "náměstí Jiřího z Poděbrad",
        "alcohol": "wine",
        "amenity": "cafe",
        "cuisine": "french",
        "name": "Le Caveau"
      }
    },
    {
      "type": "node",
      "id": 2410348761,
      "lat": 50.0786714,
      "lon": 14.4511132,
      "tags": {
        "amenity": "cafe",
        "name": "Mamacoffee",
        "opening_hours": "Mo-Fr 08:00-19:00, Sa,Su 09:00-19:00"
      }
    },
    {
      "type": "node",
      "id": 2411559565,
      "lat": 50.0758576,
      "lon": 14.4403779,
      "tags": {
        "addr:housenumber": "19",
        "addr:street": "Sázavská",
        "amenity": "cafe",
        "internet_access": "wlan",
        "name": "Mezi Srnky",
        "name:cs": "Mezi Srnky",
        "name:en": "Mezi Srnky",
        "opening_hours": "Mo-Fr 07:30-18:00; Sa-Su 09:00-16:00"
      }
    },
    {
      "type": "node",
      "id": 2415745122,
      "lat": 50.0818386,
      "lon": 14.4242831,
      "tags": {
        "amenity": "cafe",
        "name": "Langhans"
      }
    },
    {
      "type": "node",
      "id": 2428059493,
      "lat": 50.0802842,
      "lon": 14.4530062,
      "tags": {
        "amenity": "cafe"
      }
    },
    {
      "type": "node",
      "id": 2482500460,
      "lat": 49.9823957,
      "lon": 14.3619016,
      "tags": {
        "addr:city": "Praha",
        "addr:housenumber": "25",
        "addr:postcode": "15300",
        "addr:street": "Václava Balého",
        "addr:unit": "1",
        "amenity": "cafe",
        "cuisine": "coffee_shop",
        "name": "Kavárna Pelíšek",
        "outdoor_seating": "yes"
      }
    },
    {
      "type": "node",
      "id": 2482865349,
      "lat": 50.0725202,
      "lon": 14.3947743,
      "tags": {
        "amenity": "cafe",
        "cuisine": "tea",
        "name": "Čajovna To Chce Klid",
        "opening_hours": "Mo-Fr 14:00-22:00"
      }
    },
    {
      "type": "node",
      "id": 2486520771,
      "lat": 50.087004,
      "lon": 14.425517,
      "tags": {
        "amenity": "cafe",
        "atm": "no",
        "contact:email": "cafeorient@volny.cz",
        "contact:facebook": "http://facebook.com/grandcafeorient",
        "cuisine": "coffee_shop",
        "currency:CZK": "yes",
        "currency:others": "no",
        "drive_through": "no",
        "email": "cafeorient@volny.cz",
        "fax": "+420 224 224240",
        "internet_access": "wlan",
        "name": "Orient",
        "name:es": "Grand Cafe Orient",
        "opening_hours": "Mo-Fr 09:00-22:00;Sa-Su 10:00-22:00",
        "outdoor_seating": "yes",
        "payment:cash": "yes",
        "phone": "+420224224240",
        "smoking": "yes",
        "website": "https://www.grandcafeorient.cz/",
        "wheelchair": "no"
      }
    },
    {
      "type": "node",
      "id": 2487180803,
      "lat": 50.0724835,
      "lon": 14.403725,
      "tags": {
        "addr:city": "Praha",
        "addr:housenumber": "218/3",
        "addr:postcode": "15000",
        "addr:street": "Štefánikova",
        "amenity": "cafe",
        "internet_access": "wlan",
        "name": "Cross Cafe",
        "opening_hours": "Mo-Fr 07:00-21:00; Sa-Su 08:00-20:00",
        "outdoor_seating": "yes",
        "phone": "+420 608 305 028",
        "smoking": "no",
        "website": "https://www.crosscafe.cz/"
      }
    },
    {
      "type": "node",
      "id": 2490841291,
      "lat": 50.0880393,
      "lon": 14.3527959,
      "tags": {
        "addr:city": "Praha",
        "addr:conscriptionnumber": "1930",
        "addr:country": "CZ",
        "addr:housenumber": "1930/5",
        "addr:place": "Břevnov",
        "addr:postcode": "16200",
        "addr:street": "Za zahradou",
        "addr:streetnumber": "5",
        "addr:suburb": "Praha 6",
        "amenity": "cafe",
        "brewery": "Unětice",
        "facebook": "https://www.facebook.com/DoVetru",
        "internet_access": "wlan",
        "internet_access:fee": "no",
        "name": "Do Větru",
        "opening_hours": "Mo-Su 17:00-24:00",
        "outdoor_seating": "yes",
        "phone": "+420 608 839 184",
        "ref:ruian:addr": "22170821",
        "smokefree": "yes",
        "smoking": "no",
        "source:addr": "cuzk:ruian",
        "source:loc": "survey",
        "website": "https://kafedovetru.cz/"
      }
    },
    {
      "type": "node",
      "id": 2494868526,
      "lat": 50.0779893,
      "lon": 14.4371977,
      "tags": {
        "amenity": "cafe",
        "name": "Café Faux Pas"
      }
    },
    {
      "type": "node",
      "id": 2494868527,
      "lat": 50.0774917,
      "lon": 14.4399427,
      "tags": {
        "amenity": "cafe",
        "name": "Club 45"
      }
    },
    {
      "type": "node",
      "id": 2513189463,
      "lat": 50.0739855,
      "lon": 14.4421899,
      "tags": {
        "amenity": "cafe",
        "name": "Shisha"
      }
    },
    {
      "type": "node",
      "id": 2532600252,
      "lat": 50.0788616,
      "lon": 14.4329778,
      "tags": {
        "amenity": "cafe",
        "email": "info@triplecafebar.cz",
        "internet_access": "wlan",
        "name": "Nad Muzeem",
        "opening_hours": "Mo-Fr 08:00-22:00, Sa 12:00-22:00",
        "operator": "TripleCaféBar",
        "phone": "+734651012",
        "website": "www.triplecafebar.cz"
      }
    },
    {
      "type": "node",
      "id": 2560980014,
      "lat": 50.0793795,
      "lon": 14.4174134,
      "tags": {
        "amenity": "cafe",
        "cuisine": "regional",
        "name": "Qcafé"
      }
    },
    {
      "type": "node",
      "id": 2563061922,
      "lat": 50.0743196,
      "lon": 14.442979,
      "tags": {
        "addr:city": "Praha 2",
        "addr:housenumber": "18",
        "addr:postcode": "12000",
        "addr:street": "Moravská",
        "amenity": "cafe",
        "cuisine": "café_and_sandwich place",
        "internet_access": "wlan",
        "name": "Monolok cafe",
        "opening_hours": "Mo-Fr 08:00-22:00; Sa,Su 10:00-19:00",
        "phone": "+420 739 018 195",
        "website": "http://www.monolok.cz/"
      }
    },
    {
      "type": "node",
      "id": 2563931218,
      "lat": 50.0799209,
      "lon": 14.4319455,
      "tags": {
        "addr:city": "Praha",
        "addr:housenumber": "1",
        "addr:postcode": "11000",
        "addr:street": "Vinohradská",
        "amenity": "cafe",
        "cuisine": "sandwich",
        "email": "info@kavarnamuzeum.cz",
        "internet_access": "wlan",
        "internet_access:fee": "no",
        "name": "Kavárna Muzeum",
        "opening_hours": "Mo-Fr 09:00-19:00;Sa-Su 10:00-19:00",
        "opening_hours:url": "http://www.kavarnamuzeum.cz/contact/",
        "phone": "+420 224 284 511",
        "smoking": "no",
        "website": "https://kavarnamuzeum.cz/",
        "wheelchair": "yes"
      }
    },
    {
      "type": "node",
      "id": 2621675511,
      "lat": 50.0818441,
      "lon": 14.4195611,
      "tags": {
        "amenity": "cafe",
        "name": "Costa Coffee"
      }
    },
    {
      "type": "node",
      "id": 2641781450,
      "lat": 50.0862723,
      "lon": 14.4054143,
      "tags": {
        "amenity": "cafe",
        "cuisine": "french",
        "internet_access": "yes",
        "name": "Bistro de France",
        "opening_hours": "09:00-21:00"
      }
    },
    {
      "type": "node",
      "id": 2664264451,
      "lat": 50.091069,
      "lon": 14.3765847,
      "tags": {
        "addr:city": "Praha",
        "addr:conscriptionnumber": "368",
        "addr:country": "CZ",
        "addr:housenumber": "368/51",
        "addr:place": "Střešovice",
        "addr:postcode": "16200",
        "addr:street": "Sibeliova",
        "addr:streetnumber": "51",
        "addr:suburb": "Praha 6",
        "amenity": "cafe",
        "facebook": "https://www.facebook.com/naandelce.cz/",
        "name": "Na Andělce",
        "opening_hours": "Mo-Fr 11:00-23:00; Sa,Su 12:00-23:00",
        "outdoor_seating": "yes",
        "phone": "+420 608 959 876",
        "ref:ruian:addr": "22258981",
        "source:addr": "cuzk:ruian",
        "source:loc": "survey",
        "website": "http://www.naandelce.cz/"
      }
    },
    {
      "type": "node",
      "id": 2664294223,
      "lat": 50.0909404,
      "lon": 14.4096299,
      "tags": {
        "amenity": "cafe",
        "name": "Metro café"
      }
    },
    {
      "type": "node",
      "id": 2691013552,
      "lat": 50.1000445,
      "lon": 14.445842,
      "tags": {
        "addr:city": "Praha",
        "addr:country": "CZ",
        "addr:place": "Holešovice",
        "addr:postcode": "17000",
        "addr:suburb": "Praha 7",
        "amenity": "cafe",
        "cuisine": "ice_cream",
        "description": "Kavárna, zmrzlina, dorty, chlebíčky",
        "facebook": "https://www.facebook.com/kavarnaKopecek/",
        "internet_access": "wlan",
        "internet_access:fee": "no",
        "name": "Kavárna Kopeček",
        "opening_hours": "Mo-Fr 08:00-18:00; Sa 08:00-15:00",
        "outdoor_seating": "yes",
        "phone": "+420 731 565 118",
        "source": "survey"
      }
    },
    {
      "type": "node",
      "id": 2700197588,
      "lat": 50.0988698,
      "lon": 14.4058528,
      "tags": {
        "amenity": "cafe",
        "cuisine": "coffee_shop",
        "name": "Potrvá",
        "opening_hours": "Mo-Su 15:00-24:00"
      }
    },
    {
      "type": "node",
      "id": 2737439798,
      "lat": 50.0765065,
      "lon": 14.4407258,
      "tags": {
        "amenity": "cafe",
        "facebook": "https://www.facebook.com/kavarnaideal.official/",
        "internet_access": "wlan",
        "internet_access:fee": "no",
        "name": "Ideál",
        "opening_hours": "Mo-Fr 00:00-01:00,12:00-24:00; Sa 00:00-01:00,19:00-24:00",
        "phone": "+420 776 660 200",
        "source": "survey",
        "website": "http://www.cafeideal.cz/"
      }
    },
    {
      "type": "node",
      "id": 2758510155,
      "lat": 50.0725127,
      "lon": 14.4379432,
      "tags": {
        "amenity": "cafe",
        "email": "ewa.lanska@gmail.com",
        "internet_access": "wlan",
        "name": "Blatouch",
        "opening_hours": "Mo-Th 12:00-24:00; Fr 12:00-01:00; Sa 14:00-24:00; Su 14:00-23:00",
        "phone": "+420222328643",
        "smoking": "separated",
        "website": "https://www.blatouch.cz/"
      }
    },
    {
      "type": "node",
      "id": 2793210544,
      "lat": 50.0867627,
      "lon": 14.4323268,
      "tags": {
        "addr:city": "Praha",
        "addr:housenumber": "4",
        "addr:postcode": "11000",
        "addr:street": "Dlážděná",
        "amenity": "cafe",
        "email": "info@relaxcafebar.cz",
        "internet_access": "wlan",
        "internet_access:fee": "no",
        "name": "Relax Café Bar",
        "opening_hours": "Mo-Fr 08:00-22:00; Sa 14:00-22:00",
        "phone": "+420 224 211 521",
        "smoking": "yes",
        "website": "http://www.relaxcafebar.cz"
      }
    },
    {
      "type": "node",
      "id": 2795857424,
      "lat": 50.0871335,
      "lon": 14.4324281,
      "tags": {
        "amenity": "cafe",
        "name": "Kavárna Arco"
      }
    },
    {
      "type": "node",
      "id": 2796265429,
      "lat": 50.0843211,
      "lon": 14.4487698,
      "tags": {
        "addr:city": "Praha 3",
        "addr:conscriptionnumber": "487",
        "addr:housenumber": "487/23",
        "addr:postcode": "130 00",
        "addr:street": "Víta Nejedlého",
        "addr:streetnumber": "23",
        "amenity": "cafe",
        "name": "Café Pavlač",
        "smoking": "yes"
      }
    },
    {
      "type": "node",
      "id": 2810720472,
      "lat": 50.0861092,
      "lon": 14.4354184,
      "tags": {
        "amenity": "cafe",
        "name": "Cafe Bolzano"
      }
    },
    {
      "type": "node",
      "id": 2847259682,
      "lat": 50.1327837,
      "lon": 14.5506823,
      "tags": {
        "amenity": "cafe",
        "name": "U parku"
      }
    },
    {
      "type": "node",
      "id": 2857737828,
      "lat": 50.0774269,
      "lon": 14.6494951,
      "tags": {
        "addr:city": "Prague",
        "addr:housenumber": "2444",
        "addr:postcode": "19016",
        "addr:street": "Račiněveská",
        "amenity": "cafe",
        "cuisine": "coffee;cake;sweets",
        "name": "Cukrarna Sofie",
        "opening_hours": "Mo-Fr: 09:00 - 18:00, Sa : 09:00 - 17:00, Su : 10:00 - 17:00",
        "phone": "+420 737 623 611",
        "website": "http://www.cukrarnasofie.cz/"
      }
    },
    {
      "type": "node",
      "id": 2858037247,
      "lat": 50.0770226,
      "lon": 14.6601449,
      "tags": {
        "amenity": "cafe",
        "name": "Cukrárna U Berušky",
        "phone": "+420 774 889 609",
        "website": "https://www.cukrarnauberusky.cz/"
      }
    },
    {
      "type": "node",
      "id": 2859579214,
      "lat": 50.1353559,
      "lon": 14.503279,
      "tags": {
        "amenity": "cafe",
        "indoor_seating": "yes",
        "internet_access": "wlan",
        "name": "Illy",
        "opening_hours": "Mo-Su 09:00-21:30",
        "outdoor_seating": "yes"
      }
    },
    {
      "type": "node",
      "id": 2873412847,
      "lat": 50.1027134,
      "lon": 14.4339285,
      "tags": {
        "amenity": "cafe",
        "internet_access": "wlan",
        "internet_access:fee": "no",
        "name": "Čo-Xo",
        "opening_hours": "08:00-20:00",
        "website": "http://www.co-xo.cz/"
      }
    },
    {
      "type": "node",
      "id": 2889814169,
      "lat": 50.1024089,
      "lon": 14.4040971,
      "tags": {
        "addr:conscriptionnumber": "409",
        "addr:housenumber": "409/8",
        "addr:postcode": "16000",
        "addr:street": "Raisova",
        "addr:streetnumber": "8",
        "amenity": "cafe",
        "internet_access": "yes",
        "name": "Kavárna Internet",
        "opening_hours": "Mo-Su 10:00-22:00",
        "source": "survey",
        "source:addr": "uir_adr",
        "uir_adr:ADRESA_KOD": "22177884"
      }
    },
    {
      "type": "node",
      "id": 2891992704,
      "lat": 50.0911407,
      "lon": 14.3904596,
      "tags": {
        "addr:city": "Praha",
        "addr:conscriptionnumber": "87",
        "addr:country": "CZ",
        "addr:housenumber": "87/2",
        "addr:place": "Hradčany",
        "addr:postcode": "11800",
        "addr:street": "Nový Svět",
        "addr:streetnumber": "2",
        "addr:suburb": "Praha 1",
        "amenity": "cafe",
        "facebook": "https://www.facebook.com/kavarnanovysvet/",
        "name": "Nový svět",
        "opening_hours": "Mo-Sa 11:00-19:00; Su 10:00-18:00",
        "outdoor_seating": "yes",
        "phone": "+420 24 24 30 700",
        "ref:ruian:addr": "21691151",
        "source:addr": "cuzk:ruian",
        "source:loc": "survey",
        "website": "http://kavarna.novysvet.net/"
      }
    },
    {
      "type": "node",
      "id": 2899438718,
      "lat": 50.0888859,
      "lon": 14.3853859,
      "tags": {
        "addr:city": "Praha",
        "addr:housenumber": "3",
        "addr:postcode": "16900",
        "addr:street": "Hládkov",
        "amenity": "cafe",
        "contact:phone": "+420 222 264 838",
        "contact:website": "http://www.halabalacafe.cz/",
        "cuisine": "sandwich",
        "internet_access": "wlan",
        "name": "Halabala baby & cafe",
        "opening_hours": "Mo-Fr 09:00-17:00, Sa 10:00-17:00, Su 10:00-18:00",
        "smoking": "no",
        "source:contact": "website"
      }
    },
    {
      "type": "node",
      "id": 2918364154,
      "lat": 50.0896593,
      "lon": 14.4181802,
      "tags": {
        "amenity": "cafe",
        "cuisine": "sandwich",
        "internet_access": "yes",
        "name": "Infocentrum Maiselova",
        "smoking": "no",
        "source": "local_knowledge"
      }
    },
    {
      "type": "node",
      "id": 2927765204,
      "lat": 50.0304719,
      "lon": 14.4565815,
      "tags": {
        "addr:city": "Praha",
        "addr:conscriptionnumber": "800",
        "addr:housenumber": "800/5",
        "addr:postcode": "14000",
        "addr:street": "Thomayerova",
        "addr:streetnumber": "5",
        "addr:unit": "A1",
        "amenity": "cafe",
        "contact:facebook": "https://www.facebook.com/Nasekavarna",
        "cuisine": "sandwich",
        "email": "kavarna@ftn.cz",
        "internet_access": "yes",
        "name": "Naše Kavárna",
        "opening_hours": "Mo-Th 07:00-18:00, Fr 07:00-17:00, Sa-Su 12:00-18:00",
        "phone": "+420 261 082 265",
        "phone_1": "+420 721 742 591",
        "smoking": "no",
        "website": "http://nasekavarna.com"
      }
    },
    {
      "type": "node",
      "id": 2980960788,
      "lat": 50.0788161,
      "lon": 14.4326771,
      "tags": {
        "addr:city": "Praha 2",
        "addr:conscriptionnumber": "490",
        "addr:housenumber": "490/12",
        "addr:postcode": "12000",
        "addr:street": "Škrétova",
        "addr:streetnumber": "12",
        "amenity": "cafe",
        "cuisine": "coffee_shop;breakfast;sandwich",
        "email": "info@cafedu.cz",
        "facebook": "https://facebook.com/CafeduPrague",
        "internet_access": "wlan",
        "name": "Cafedu",
        "note": "Cafedu is coffee bar and study room. The study room is opened 24h/days (nonstop). Registration needed, see details on their website.",
        "opening_hours": "Mo-Fr 7:30-22:00; Sa-Su 10:00-22:00",
        "smoking": "no",
        "toilets:wheelchair": "no",
        "website": "http://www.cafedu.cz",
        "wheelchair": "yes"
      }
    },
    {
      "type": "node",
      "id": 2993444397,
      "lat": 50.0788928,
      "lon": 14.4251007,
      "tags": {
        "addr:city": "Praha",
        "addr:postcode": "11121",
        "addr:street": "Štěpánská",
        "amenity": "cafe",
        "cuisine": "french",
        "internet_access": "wlan",
        "name": "Café 35"
      }
    },